{
  "live": [
    {
      "lat": 38.9,
      "lng": -77.04,
      "label": "2024 \u2014 United States \u2014 President (+24 more)",
      "elections": 25,
      "markets": 530,
      "volume": 6710649833.98,
      "search_query": "President United States 2024",
      "has_pm": 1,
      "has_k": 1,
      "kalshi_event": "PRES-2024",
      "pm_event": "presidential-election-winner-2024"
    },
    {
      "lat": 38.72,
      "lng": -9.14,
      "label": "2026 \u2014 Portugal \u2014 President",
      "elections": 1,
      "markets": 40,
      "volume": 136954374.81,
      "search_query": "President Portugal 2026",
      "has_pm": 1,
      "has_k": 1,
      "kalshi_event": "KXPORTUGALPRES-26FEB15",
      "pm_event": "portugal-presidential-election"
    },
    {
      "lat": -23.55,
      "lng": -46.64,
      "label": "2026 \u2014 Brazil \u2014 President (+4 more)",
      "elections": 5,
      "markets": 43,
      "volume": 20489796.87,
      "search_query": "President Brazil 2026",
      "has_pm": 1,
      "has_k": 1,
      "kalshi_event": "KXBRPRES-26",
      "pm_event": "brazil-presidential-election"
    },
    {
      "lat": 36.78,
      "lng": -119.42,
      "label": "2024 \u2014 CA-13 \u2014 House (+72 more)",
      "elections": 73,
      "markets": 278,
      "volume": 15845625.0,
      "search_query": "House CA-13 United States 2024",
      "has_pm": 1,
      "has_k": 1,
      "kalshi_event": "HOUSECA13-24",
      "pm_event": "ca-13-election-gray-d-vs-duarte-r"
    },
    {
      "lat": 13.76,
      "lng": 100.5,
      "label": "2026 \u2014 Thailand \u2014 Parliament (+1 more)",
      "elections": 2,
      "markets": 21,
      "volume": 15784894.9,
      "search_query": "Parliament Thailand 2026",
      "has_pm": 1,
      "has_k": 1,
      "kalshi_event": "KXTHAILANDHOUSE-26FEB08",
      "pm_event": "thai-legislative-election-winner"
    },
    {
      "lat": 48.86,
      "lng": 2.35,
      "label": "2027 \u2014 France \u2014 President (+1 more)",
      "elections": 2,
      "markets": 67,
      "volume": 8466624.35,
      "search_query": "President France 2027",
      "has_pm": 1,
      "has_k": 1,
      "kalshi_event": "KXFRENCHPRES-27",
      "pm_event": "next-french-presidential-election"
    },
    {
      "lat": 31.97,
      "lng": -99.9,
      "label": "2026 \u2014 Texas \u2014 Senate (+66 more)",
      "elections": 67,
      "markets": 236,
      "volume": 7124692.15,
      "search_query": "Senate Texas United States 2026",
      "has_pm": 1,
      "has_k": 1,
      "kalshi_event": "KXSENATETXR-26",
      "pm_event": "texas-democratic-senate-primary-winner"
    },
    {
      "lat": 4.71,
      "lng": -74.07,
      "label": "2026 \u2014 Colombia \u2014 President (+1 more)",
      "elections": 2,
      "markets": 72,
      "volume": 5736034.29,
      "search_query": "President Colombia 2026",
      "has_pm": 1,
      "has_k": 1,
      "kalshi_event": "KXCOLOMBIAPRES-26",
      "pm_event": "colombia-presidential-election"
    },
    {
      "lat": 9.93,
      "lng": -84.08,
      "label": "2026 \u2014 Costa Rica \u2014 President (+1 more)",
      "elections": 2,
      "markets": 65,
      "volume": 5682427.34,
      "search_query": "President Costa Rica 2026",
      "has_pm": 1,
      "has_k": 1,
      "kalshi_event": "KXCOSTARICAPRES-26",
      "pm_event": "costa-rica-presidential-election"
    },
    {
      "lat": 21.03,
      "lng": 105.85,
      "label": "2023 \u2014 Vietnam \u2014 President (+1 more)",
      "elections": 2,
      "markets": 6,
      "volume": 3828467.36,
      "search_query": "President Vietnam 2023",
      "has_pm": 1,
      "has_k": 0,
      "pm_event": "next-president-of-vietnam"
    },
    {
      "lat": 37.57,
      "lng": 126.98,
      "label": "2026 \u2014 Seoul \u2014 Mayor (+2 more)",
      "elections": 3,
      "markets": 40,
      "volume": 2631154.81,
      "search_query": "Mayor Seoul South Korea 2026",
      "has_pm": 1,
      "has_k": 1,
      "kalshi_event": "KXSEOULMAYOR-26JUN03",
      "pm_event": "2026-seoul-mayoral-election-winner"
    },
    {
      "lat": 45.37,
      "lng": -69.6,
      "label": "2026 \u2014 Maine \u2014 Senate (+8 more)",
      "elections": 9,
      "markets": 76,
      "volume": 1903845.15,
      "search_query": "Senate Maine United States 2026",
      "has_pm": 1,
      "has_k": 1,
      "kalshi_event": "KXSENATEMED-26",
      "pm_event": "maine-senate-election-winner"
    },
    {
      "lat": 42.17,
      "lng": -74.95,
      "label": "2024 \u2014 NY-3 \u2014 House (+49 more)",
      "elections": 50,
      "markets": 189,
      "volume": 1386319.62,
      "search_query": "House NY-3 United States 2024",
      "has_pm": 1,
      "has_k": 1,
      "kalshi_event": "GOVPARTYNY-26",
      "pm_event": "ny-3-special-election-for-santos-seat-suozzi-d-vs-pilip-r"
    },
    {
      "lat": 41.49,
      "lng": -99.9,
      "label": "2024 \u2014 NE-2 \u2014 House (+11 more)",
      "elections": 12,
      "markets": 45,
      "volume": 1242140.74,
      "search_query": "House NE-2 United States 2024",
      "has_pm": 1,
      "has_k": 1,
      "kalshi_event": "HOUSENE2-24",
      "pm_event": "congressional-district-2nd-nebraska-presidential-election-winner"
    },
    {
      "lat": 51.51,
      "lng": -0.13,
      "label": "2026 \u2014 United Kingdom \u2014 Prime Minister (+3 more)",
      "elections": 4,
      "markets": 44,
      "volume": 1124709.35,
      "search_query": "Prime Minister United Kingdom 2026",
      "has_pm": 1,
      "has_k": 1,
      "kalshi_event": "KXNEXTUKPM-30"
    },
    {
      "lat": 27.99,
      "lng": -81.76,
      "label": "2026 \u2014 Florida \u2014 Governor (+33 more)",
      "elections": 34,
      "markets": 114,
      "volume": 929610.57,
      "search_query": "Governor Florida United States 2026",
      "has_pm": 1,
      "has_k": 1,
      "kalshi_event": "KXGOVFLNOMR-26",
      "pm_event": "republican-nominee-for-florida-governor"
    },
    {
      "lat": 64.2,
      "lng": -152.49,
      "label": "2026 \u2014 Alaska \u2014 Governor (+5 more)",
      "elections": 6,
      "markets": 64,
      "volume": 784033.31,
      "search_query": "Governor Alaska United States 2026",
      "has_pm": 1,
      "has_k": 1,
      "kalshi_event": "KXGOVAK-26",
      "pm_event": "alaska-governor-election-winner"
    },
    {
      "lat": 40.42,
      "lng": -82.91,
      "label": "2026 \u2014 Ohio \u2014 Governor (+20 more)",
      "elections": 21,
      "markets": 82,
      "volume": 773368.55,
      "search_query": "Governor Ohio United States 2026",
      "has_pm": 1,
      "has_k": 1,
      "kalshi_event": "KXGOVOHNOMR-26",
      "pm_event": "ohio-governor-republican-primary-winner"
    },
    {
      "lat": 48.78,
      "lng": 9.18,
      "label": "2026 \u2014 Baden-W\u00fcrttemberg \u2014 Parliament",
      "elections": 1,
      "markets": 8,
      "volume": 760630.98,
      "search_query": "Parliament Baden-W\u00fcrttemberg Germany 2026",
      "has_pm": 1,
      "has_k": 0,
      "pm_event": "who-will-win-the-most-seats-in-the-2026-baden-wrttemberg-parliamentary-elections"
    },
    {
      "lat": 44.31,
      "lng": -85.6,
      "label": "2026 \u2014 Michigan \u2014 Governor (+22 more)",
      "elections": 23,
      "markets": 114,
      "volume": 707725.28,
      "search_query": "Governor Michigan United States 2026",
      "has_pm": 1,
      "has_k": 1,
      "kalshi_event": "GOVPARTYMI-26",
      "pm_event": "michigan-governor-winner-2026"
    },
    {
      "lat": 40.06,
      "lng": -74.41,
      "label": "2024 \u2014 NJ-7 \u2014 House (+13 more)",
      "elections": 14,
      "markets": 37,
      "volume": 654046.41,
      "search_query": "House NJ-7 United States 2024",
      "has_pm": 1,
      "has_k": 1,
      "kalshi_event": "KXNJ11SD-26",
      "pm_event": "nj-07-election-altman-d-vs-kean-r"
    },
    {
      "lat": 46.06,
      "lng": 14.51,
      "label": "2026 \u2014 Slovenia \u2014 Parliament (+1 more)",
      "elections": 2,
      "markets": 31,
      "volume": 649436.56,
      "search_query": "Parliament Slovenia 2026",
      "has_pm": 1,
      "has_k": 1,
      "kalshi_event": "KXSLOVENIAPARLI-26MAR29",
      "pm_event": "slovenian-parliamentary-election-winner-791"
    },
    {
      "lat": 34.05,
      "lng": -111.09,
      "label": "2024 \u2014 AZ-6 \u2014 House (+23 more)",
      "elections": 24,
      "markets": 72,
      "volume": 571050.3,
      "search_query": "House AZ-6 United States 2024",
      "has_pm": 1,
      "has_k": 1,
      "kalshi_event": "HOUSEAZ6-24",
      "pm_event": "az-06-election-engel-d-vs-ciscomani-r"
    },
    {
      "lat": 32.68,
      "lng": -83.22,
      "label": "2026 \u2014 Georgia \u2014 Governor (+21 more)",
      "elections": 22,
      "markets": 105,
      "volume": 501098.16,
      "search_query": "Governor Georgia United States 2026",
      "has_pm": 1,
      "has_k": 1,
      "kalshi_event": "KXGOVGANOMD-26",
      "pm_event": "georgia-governor-republican-primary-winner"
    },
    {
      "lat": 49.99,
      "lng": 8.25,
      "label": "2026 \u2014 Rhineland-Palatinate \u2014 Parliament",
      "elections": 1,
      "markets": 14,
      "volume": 460400.68,
      "search_query": "Parliament Rhineland-Palatinate Germany 2026",
      "has_pm": 1,
      "has_k": 0,
      "pm_event": "rhineland-palatinate-parliamentary-election-winner"
    },
    {
      "lat": 46.73,
      "lng": -94.69,
      "label": "2026 \u2014 Minnesota \u2014 Governor (+16 more)",
      "elections": 17,
      "markets": 80,
      "volume": 446373.43,
      "search_query": "Governor Minnesota United States 2026",
      "has_pm": 1,
      "has_k": 1,
      "kalshi_event": "KXGOVMNNOMR-26",
      "pm_event": "minnesota-governor-republican-primary-winner"
    },
    {
      "lat": 37.27,
      "lng": 127.01,
      "label": "2026 \u2014 Gyeonggi Province \u2014 Regional",
      "elections": 1,
      "markets": 15,
      "volume": 394764.48,
      "search_query": "Regional Gyeonggi Province South Korea 2026",
      "has_pm": 1,
      "has_k": 0,
      "pm_event": "2026-gyeonggi-province-gubernatorial-election-winner"
    },
    {
      "lat": 31.77,
      "lng": 35.22,
      "label": "2023 \u2014 Israel \u2014 Prime Minister (+2 more)",
      "elections": 3,
      "markets": 23,
      "volume": 375424.45,
      "search_query": "Prime Minister Israel 2023",
      "has_pm": 1,
      "has_k": 1,
      "kalshi_event": "KXNEXTISRAELPM-45JAN01",
      "pm_event": "who-will-be-the-next-prime-minister-of-israel-after-the-next-election"
    },
    {
      "lat": 35.76,
      "lng": -79.02,
      "label": "2026 \u2014 North Carolina \u2014 Senate (+21 more)",
      "elections": 22,
      "markets": 67,
      "volume": 362933.43,
      "search_query": "Senate North Carolina United States 2026",
      "has_pm": 1,
      "has_k": 1,
      "kalshi_event": "KXSENATENCR-26",
      "pm_event": "north-carolina-democratic-senate-primary-winner"
    },
    {
      "lat": 11.86,
      "lng": -15.6,
      "label": "2025 \u2014 Guinea-Bissau \u2014 President (+1 more)",
      "elections": 2,
      "markets": 18,
      "volume": 343066.1,
      "search_query": "President Guinea-Bissau 2025",
      "has_pm": 1,
      "has_k": 0,
      "pm_event": "guinea-bissau-presidential-election"
    },
    {
      "lat": 47.75,
      "lng": -120.74,
      "label": "2024 \u2014 WA-3 \u2014 House (+15 more)",
      "elections": 16,
      "markets": 29,
      "volume": 334047.69,
      "search_query": "House WA-3 United States 2024",
      "has_pm": 1,
      "has_k": 1,
      "kalshi_event": "HOUSEWA3-24",
      "pm_event": "wa-03-house-race-perez-d-vs-kent-r"
    },
    {
      "lat": -12.05,
      "lng": -77.04,
      "label": "2026 \u2014 Peru \u2014 President (+1 more)",
      "elections": 2,
      "markets": 52,
      "volume": 332681.31,
      "search_query": "President Peru 2026",
      "has_pm": 1,
      "has_k": 1,
      "kalshi_event": "KXPERUPRES-26",
      "pm_event": "peru-presidential-election-winner"
    },
    {
      "lat": 53.47,
      "lng": -2.16,
      "label": "2024 \u2014 Gorton and Denton \u2014 Parliament (+1 more)",
      "elections": 2,
      "markets": 8,
      "volume": 317660.89,
      "search_query": "Parliament Gorton and Denton United Kingdom 2024",
      "has_pm": 1,
      "has_k": 0
    },
    {
      "lat": 50.08,
      "lng": 14.44,
      "label": "2024 \u2014 Czech Republic \u2014 Parliament",
      "elections": 1,
      "markets": 1,
      "volume": 300174.0,
      "search_query": "Parliament Czech Republic 2024",
      "has_pm": 0,
      "has_k": 1,
      "kalshi_event": "KXOCTSWEEP-25OCT31"
    },
    {
      "lat": 33.89,
      "lng": 35.5,
      "label": "2026 \u2014 Lebanon \u2014 Parliament",
      "elections": 1,
      "markets": 32,
      "volume": 280287.0,
      "search_query": "Parliament Lebanon 2026",
      "has_pm": 1,
      "has_k": 1,
      "kalshi_event": "KXLEBANONPARLI-26",
      "pm_event": "lebanon-parliamentary-election-winner"
    },
    {
      "lat": 35.47,
      "lng": -97.52,
      "label": "2026 \u2014 Oklahoma \u2014 Governor (+9 more)",
      "elections": 10,
      "markets": 39,
      "volume": 266620.52,
      "search_query": "Governor Oklahoma United States 2026",
      "has_pm": 1,
      "has_k": 1,
      "kalshi_event": "KXGOVOKNOMR-26",
      "pm_event": "oklahoma-governor-republican-primary-winner"
    },
    {
      "lat": 40.63,
      "lng": -89.4,
      "label": "2026 \u2014 Illinois \u2014 Senate (+28 more)",
      "elections": 29,
      "markets": 135,
      "volume": 255613.93,
      "search_query": "Senate Illinois United States 2026",
      "has_pm": 1,
      "has_k": 1,
      "kalshi_event": "KXSENATEILD-26",
      "pm_event": "illinois-democratic-senate-primary-winner"
    },
    {
      "lat": 41.88,
      "lng": -93.1,
      "label": "2026 \u2014 Iowa \u2014 Senate (+10 more)",
      "elections": 11,
      "markets": 55,
      "volume": 248970.78,
      "search_query": "Senate Iowa United States 2026",
      "has_pm": 1,
      "has_k": 1,
      "kalshi_event": "SENATEIA-26",
      "pm_event": "iowa-senate-election-winner"
    },
    {
      "lat": 37.67,
      "lng": -84.67,
      "label": "2026 \u2014 Kentucky \u2014 Senate (+11 more)",
      "elections": 12,
      "markets": 48,
      "volume": 190550.19,
      "search_query": "Senate Kentucky United States 2026",
      "has_pm": 1,
      "has_k": 1,
      "kalshi_event": "KXSENATEKYR-26",
      "pm_event": "kentucky-democratic-senate-primary-winner"
    },
    {
      "lat": 39.01,
      "lng": -98.48,
      "label": "2026 \u2014 Kansas \u2014 Governor (+10 more)",
      "elections": 11,
      "markets": 48,
      "volume": 186178.92,
      "search_query": "Governor Kansas United States 2026",
      "has_pm": 1,
      "has_k": 1,
      "kalshi_event": "KXGOVKSNOMD-26",
      "pm_event": "kansas-governor-democratic-primary-winner"
    },
    {
      "lat": 37.46,
      "lng": 126.71,
      "label": "2026 \u2014 Incheon \u2014 Mayor",
      "elections": 1,
      "markets": 9,
      "volume": 174828.73,
      "search_query": "Mayor Incheon South Korea 2026",
      "has_pm": 1,
      "has_k": 0,
      "pm_event": "incheon-mayoral-election-winner"
    },
    {
      "lat": 37.43,
      "lng": -78.66,
      "label": "2024 \u2014 Virginia \u2014 Senate (+20 more)",
      "elections": 21,
      "markets": 57,
      "volume": 166727.44,
      "search_query": "Senate Virginia United States 2024",
      "has_pm": 1,
      "has_k": 1,
      "kalshi_event": "HOUSEVA7-24",
      "pm_event": "virginia-republican-senate-primary-winner"
    },
    {
      "lat": 38.46,
      "lng": -92.29,
      "label": "2024 \u2014 MO-1 \u2014 House (+5 more)",
      "elections": 6,
      "markets": 16,
      "volume": 155804.22,
      "search_query": "House MO-1 United States 2024",
      "has_pm": 1,
      "has_k": 1,
      "kalshi_event": "GOVPARTYMO-28",
      "pm_event": "mo-1-democratic-primary-winner"
    },
    {
      "lat": 46.81,
      "lng": -71.21,
      "label": "2026 \u2014 Quebec \u2014 Regional",
      "elections": 1,
      "markets": 6,
      "volume": 142044.61,
      "search_query": "Regional Quebec Canada 2026",
      "has_pm": 1,
      "has_k": 0,
      "pm_event": "quebec-general-election-winner"
    },
    {
      "lat": 43.8,
      "lng": -120.55,
      "label": "2024 \u2014 OR-5 \u2014 House (+10 more)",
      "elections": 11,
      "markets": 38,
      "volume": 135767.77,
      "search_query": "House OR-5 United States 2024",
      "has_pm": 1,
      "has_k": 1,
      "kalshi_event": "HOUSEOR5-24",
      "pm_event": "or-05-election-bynum-d-vs-chavez-deremer-r"
    },
    {
      "lat": 59.33,
      "lng": 18.07,
      "label": "2026 \u2014 Sweden \u2014 Parliament (+1 more)",
      "elections": 2,
      "markets": 23,
      "volume": 134035.29,
      "search_query": "Parliament Sweden 2026",
      "has_pm": 1,
      "has_k": 1,
      "kalshi_event": "KXSWEDENPARLI-26",
      "pm_event": "sweden-parliamentary-election-winner"
    },
    {
      "lat": 43.19,
      "lng": -71.57,
      "label": "2026 \u2014 New Hampshire \u2014 Senate (+11 more)",
      "elections": 12,
      "markets": 52,
      "volume": 133704.48,
      "search_query": "Senate New Hampshire United States 2026",
      "has_pm": 1,
      "has_k": 1,
      "kalshi_event": "SENATENH-26",
      "pm_event": "new-hampshire-senate-election-winner"
    },
    {
      "lat": 43.78,
      "lng": -88.79,
      "label": "2026 \u2014 Wisconsin \u2014 Governor (+16 more)",
      "elections": 17,
      "markets": 70,
      "volume": 126881.72,
      "search_query": "Governor Wisconsin United States 2026",
      "has_pm": 1,
      "has_k": 1,
      "kalshi_event": "GOVPARTYWI-26",
      "pm_event": "wisconsin-governor-winner-2026"
    },
    {
      "lat": 30.98,
      "lng": -91.96,
      "label": "2026 \u2014 Louisiana \u2014 Senate (+9 more)",
      "elections": 10,
      "markets": 35,
      "volume": 124634.35,
      "search_query": "Senate Louisiana United States 2026",
      "has_pm": 1,
      "has_k": 1,
      "kalshi_event": "KXSENATELAR-26",
      "pm_event": "louisiana-republican-senate-primary-winner-889"
    },
    {
      "lat": 34.52,
      "lng": -105.87,
      "label": "2026 \u2014 New Mexico \u2014 Governor (+7 more)",
      "elections": 8,
      "markets": 42,
      "volume": 121035.27,
      "search_query": "Governor New Mexico United States 2026",
      "has_pm": 1,
      "has_k": 1,
      "kalshi_event": "KXGOVNMNOMD-26",
      "pm_event": "new-mexico-governor-republican-primary-winner"
    },
    {
      "lat": 44.07,
      "lng": -114.74,
      "label": "2026 \u2014 Idaho \u2014 Governor (+7 more)",
      "elections": 8,
      "markets": 19,
      "volume": 120362.94,
      "search_query": "Governor Idaho United States 2026",
      "has_pm": 1,
      "has_k": 1,
      "kalshi_event": "SENATEID-26",
      "pm_event": "idaho-governor-democratic-primary-winner"
    },
    {
      "lat": 41.2,
      "lng": -77.19,
      "label": "2024 \u2014 PA-10 \u2014 House (+27 more)",
      "elections": 28,
      "markets": 70,
      "volume": 114992.33,
      "search_query": "House PA-10 United States 2024",
      "has_pm": 1,
      "has_k": 1,
      "kalshi_event": "HOUSEPA10-24",
      "pm_event": "pa-10-election-stelson-d-vs-perry-r"
    },
    {
      "lat": 43.71,
      "lng": 7.26,
      "label": "2026 \u2014 Nice \u2014 Mayor",
      "elections": 1,
      "markets": 5,
      "volume": 108430.35,
      "search_query": "Mayor Nice France 2026",
      "has_pm": 1,
      "has_k": 0,
      "pm_event": "who-will-win-the-nice-mayoral-election"
    },
    {
      "lat": 33.84,
      "lng": -81.16,
      "label": "2026 \u2014 South Carolina \u2014 Governor (+12 more)",
      "elections": 13,
      "markets": 53,
      "volume": 103284.57,
      "search_query": "Governor South Carolina United States 2026",
      "has_pm": 1,
      "has_k": 1,
      "kalshi_event": "KXGOVSCNOMR-26",
      "pm_event": "south-carolina-governor-republican-primary-winner-784"
    },
    {
      "lat": 4.36,
      "lng": 18.56,
      "label": "2025 \u2014 Central African Republic \u2014 Parliament",
      "elections": 1,
      "markets": 7,
      "volume": 100536.85,
      "search_query": "Parliament Central African Republic 2025",
      "has_pm": 1,
      "has_k": 0,
      "pm_event": "central-african-republic-national-assembly-election-winner"
    },
    {
      "lat": 34.8,
      "lng": -92.2,
      "label": "2026 \u2014 Arkansas \u2014 Governor (+10 more)",
      "elections": 11,
      "markets": 22,
      "volume": 93983.03,
      "search_query": "Governor Arkansas United States 2026",
      "has_pm": 1,
      "has_k": 1,
      "kalshi_event": "SENATEAR-26",
      "pm_event": "arkansas-governor-democratic-primary-winner"
    },
    {
      "lat": -16.5,
      "lng": -68.15,
      "label": "2026 \u2014 Santa Cruz \u2014 Governor (+6 more)",
      "elections": 7,
      "markets": 54,
      "volume": 87432.71,
      "search_query": "Governor Santa Cruz Bolivia 2026",
      "has_pm": 1,
      "has_k": 0,
      "pm_event": "santa-cruz-governor-election-winner-bolivia"
    },
    {
      "lat": 40.71,
      "lng": -74.01,
      "label": "2026 \u2014 New York City \u2014 City Council Speaker",
      "elections": 1,
      "markets": 5,
      "volume": 73474.0,
      "search_query": "City Council Speaker New York City United States 2026",
      "has_pm": 0,
      "has_k": 1,
      "kalshi_event": "KXNYCCOUNCILSPEAKER-26JAN06"
    },
    {
      "lat": 34.05,
      "lng": -118.24,
      "label": "2026 \u2014 Los Angeles \u2014 Mayor (+1 more)",
      "elections": 2,
      "markets": 18,
      "volume": 72805.3,
      "search_query": "Mayor Los Angeles United States 2026",
      "has_pm": 1,
      "has_k": 1,
      "kalshi_event": "KXMAYORLA-26",
      "pm_event": "los-angeles-mayoral-election-117"
    },
    {
      "lat": 32.36,
      "lng": -86.3,
      "label": "2026 \u2014 Alabama \u2014 Governor (+10 more)",
      "elections": 11,
      "markets": 44,
      "volume": 70314.03,
      "search_query": "Governor Alabama United States 2026",
      "has_pm": 1,
      "has_k": 1,
      "kalshi_event": "KXGOVALNOMR-26",
      "pm_event": "alabama-governor-democratic-primary-winner"
    },
    {
      "lat": 39.55,
      "lng": -105.78,
      "label": "2026 \u2014 Colorado \u2014 Governor (+17 more)",
      "elections": 18,
      "markets": 83,
      "volume": 67466.69,
      "search_query": "Governor Colorado United States 2026",
      "has_pm": 1,
      "has_k": 1,
      "kalshi_event": "KXGOVCONOMD-26",
      "pm_event": "colorado-governor-democratic-primary-winner"
    },
    {
      "lat": 38.8,
      "lng": -116.42,
      "label": "2026 \u2014 Nevada \u2014 Governor (+12 more)",
      "elections": 13,
      "markets": 26,
      "volume": 66962.3,
      "search_query": "Governor Nevada United States 2026",
      "has_pm": 1,
      "has_k": 1,
      "kalshi_event": "GOVPARTYNV-26",
      "pm_event": "nevada-governor-winner-2026"
    },
    {
      "lat": 37.88,
      "lng": 127.73,
      "label": "2026 \u2014 Gangwon Province \u2014 Regional",
      "elections": 1,
      "markets": 9,
      "volume": 65934.54,
      "search_query": "Regional Gangwon Province South Korea 2026",
      "has_pm": 1,
      "has_k": 0,
      "pm_event": "gangwon-province-governor-election-winner"
    },
    {
      "lat": 41.58,
      "lng": -71.48,
      "label": "2026 \u2014 Rhode Island \u2014 Governor (+7 more)",
      "elections": 8,
      "markets": 32,
      "volume": 65368.77,
      "search_query": "Governor Rhode Island United States 2026",
      "has_pm": 1,
      "has_k": 1,
      "kalshi_event": "GOVPARTYRI-26",
      "pm_event": "rhode-island-governor-winner-2026"
    },
    {
      "lat": 45.76,
      "lng": 4.84,
      "label": "2026 \u2014 Lyon \u2014 Mayor",
      "elections": 1,
      "markets": 6,
      "volume": 61336.43,
      "search_query": "Mayor Lyon France 2026",
      "has_pm": 1,
      "has_k": 0,
      "pm_event": "who-will-win-the-lyon-mayoral-election"
    },
    {
      "lat": 42.41,
      "lng": -71.38,
      "label": "2026 \u2014 Massachusetts \u2014 Governor (+11 more)",
      "elections": 12,
      "markets": 44,
      "volume": 60120.67,
      "search_query": "Governor Massachusetts United States 2026",
      "has_pm": 1,
      "has_k": 1,
      "kalshi_event": "GOVPARTYMA-26",
      "pm_event": "massachusetts-governor-winner-2026"
    },
    {
      "lat": 44.56,
      "lng": -72.58,
      "label": "2026 \u2014 Vermont \u2014 Governor (+5 more)",
      "elections": 6,
      "markets": 28,
      "volume": 58379.57,
      "search_query": "Governor Vermont United States 2026",
      "has_pm": 1,
      "has_k": 1,
      "kalshi_event": "KXGOVVTNOMD-26",
      "pm_event": "vermont-governor-democratic-primary-winner"
    },
    {
      "lat": 35.52,
      "lng": -86.58,
      "label": "2026 \u2014 Tennessee \u2014 Senate (+11 more)",
      "elections": 12,
      "markets": 32,
      "volume": 55314.3,
      "search_query": "Senate Tennessee United States 2026",
      "has_pm": 1,
      "has_k": 1,
      "kalshi_event": "SENATETN-26",
      "pm_event": "tennessee-senate-election-winner"
    },
    {
      "lat": 27.72,
      "lng": 85.32,
      "label": "2024 \u2014 Nepal \u2014 Parliament (+2 more)",
      "elections": 3,
      "markets": 9,
      "volume": 47313.88,
      "search_query": "Parliament Nepal 2024",
      "has_pm": 1,
      "has_k": 0,
      "pm_event": "nepal-house-of-representatives-election-winner"
    },
    {
      "lat": 41.65,
      "lng": -4.73,
      "label": "2026 \u2014 Castilla y Le\u00f3n \u2014 Regional",
      "elections": 1,
      "markets": 9,
      "volume": 46112.49,
      "search_query": "Regional Castilla y Le\u00f3n Spain 2026",
      "has_pm": 1,
      "has_k": 0,
      "pm_event": "castilla-y-leon-regional-election-winner-757"
    },
    {
      "lat": 52.52,
      "lng": 13.41,
      "label": "2026 \u2014 Berlin \u2014 Regional (+2 more)",
      "elections": 3,
      "markets": 21,
      "volume": 43903.81,
      "search_query": "Regional Berlin Germany 2026",
      "has_pm": 1,
      "has_k": 0,
      "pm_event": "berlin-state-election-winner"
    },
    {
      "lat": 45.42,
      "lng": -75.69,
      "label": "2026 \u2014 Canada \u2014 Other (+2 more)",
      "elections": 3,
      "markets": 9,
      "volume": 42445.93,
      "search_query": "Other Canada 2026",
      "has_pm": 1,
      "has_k": 1,
      "kalshi_event": "KXOTTAWAMAYOR-26OCT26",
      "pm_event": "canada-new-democratic-party-leadership-election-winner"
    },
    {
      "lat": 40.18,
      "lng": 44.51,
      "label": "2026 \u2014 Armenia \u2014 Parliament",
      "elections": 1,
      "markets": 12,
      "volume": 41848.39,
      "search_query": "Parliament Armenia 2026",
      "has_pm": 1,
      "has_k": 1,
      "kalshi_event": "KXARMENIAPARLI-26",
      "pm_event": "armenia-parliamentary-election-winner"
    },
    {
      "lat": 42.7,
      "lng": 23.32,
      "label": "2024 \u2014 Bulgaria \u2014 President (+1 more)",
      "elections": 2,
      "markets": 22,
      "volume": 35708.94,
      "search_query": "President Bulgaria 2024",
      "has_pm": 1,
      "has_k": 1,
      "kalshi_event": "KXBULGARIAPRES-26NOV15",
      "pm_event": "bulgaria-presidential-election"
    },
    {
      "lat": 13.08,
      "lng": 80.27,
      "label": "2026 \u2014 Tamil Nadu \u2014 Regional",
      "elections": 1,
      "markets": 12,
      "volume": 34754.29,
      "search_query": "Regional Tamil Nadu India 2026",
      "has_pm": 1,
      "has_k": 0,
      "pm_event": "tamil-nadu-legislative-assembly-election-winner"
    },
    {
      "lat": 35.18,
      "lng": 129.08,
      "label": "2026 \u2014 Busan \u2014 Mayor",
      "elections": 1,
      "markets": 12,
      "volume": 34196.86,
      "search_query": "Mayor Busan South Korea 2026",
      "has_pm": 1,
      "has_k": 0,
      "pm_event": "2026-busan-mayoral-election-winner"
    },
    {
      "lat": 32.35,
      "lng": -89.4,
      "label": "2024 \u2014 MS-2 \u2014 House (+7 more)",
      "elections": 8,
      "markets": 25,
      "volume": 34005.68,
      "search_query": "House MS-2 United States 2024",
      "has_pm": 1,
      "has_k": 1,
      "kalshi_event": "KXSENATEMSD-26",
      "pm_event": "mississippi-republican-senate-primary-winner"
    },
    {
      "lat": 39.05,
      "lng": -76.64,
      "label": "2026 \u2014 Maryland \u2014 Governor (+11 more)",
      "elections": 12,
      "markets": 32,
      "volume": 33729.36,
      "search_query": "Governor Maryland United States 2026",
      "has_pm": 1,
      "has_k": 1,
      "kalshi_event": "GOVPARTYMD-26",
      "pm_event": "maryland-governor-winner-2026"
    },
    {
      "lat": 41.6,
      "lng": -72.76,
      "label": "2026 \u2014 Connecticut \u2014 Governor (+8 more)",
      "elections": 9,
      "markets": 25,
      "volume": 30912.11,
      "search_query": "Governor Connecticut United States 2026",
      "has_pm": 1,
      "has_k": 1,
      "kalshi_event": "KXGOVCTNOMD-26",
      "pm_event": "connecticut-governor-democratic-primary-winner"
    },
    {
      "lat": 46.8,
      "lng": -110.36,
      "label": "2026 \u2014 Montana \u2014 Senate (+6 more)",
      "elections": 7,
      "markets": 15,
      "volume": 30215.31,
      "search_query": "Senate Montana United States 2026",
      "has_pm": 1,
      "has_k": 1,
      "kalshi_event": "SENATEMT-26",
      "pm_event": "montana-senate-election-winner"
    },
    {
      "lat": 25.03,
      "lng": 121.57,
      "label": "2026 \u2014 Taiwan \u2014 Regional (+1 more)",
      "elections": 2,
      "markets": 6,
      "volume": 25641.06,
      "search_query": "Regional Taiwan 2026",
      "has_pm": 1,
      "has_k": 1,
      "kalshi_event": "KXPRESTAIWAN-28",
      "pm_event": "2026-taiwanese-local-elections-party-winner"
    },
    {
      "lat": 39.32,
      "lng": -111.09,
      "label": "2026 \u2014 UT-3 \u2014 House (+12 more)",
      "elections": 13,
      "markets": 33,
      "volume": 21330.05,
      "search_query": "House UT-3 United States 2026",
      "has_pm": 1,
      "has_k": 1,
      "kalshi_event": "KXHOUSEUT03-26",
      "pm_event": "ut-01-democratic-primary-winner"
    },
    {
      "lat": 43.08,
      "lng": -107.29,
      "label": "2026 \u2014 Wyoming \u2014 Governor (+4 more)",
      "elections": 5,
      "markets": 33,
      "volume": 20011.38,
      "search_query": "Governor Wyoming United States 2026",
      "has_pm": 1,
      "has_k": 1,
      "kalshi_event": "KXGOVWYNOMR-26",
      "pm_event": "wyoming-governor-republican-primary-winner"
    },
    {
      "lat": -17.39,
      "lng": -66.16,
      "label": "2026 \u2014 Cochabamba \u2014 Mayor (+1 more)",
      "elections": 2,
      "markets": 19,
      "volume": 19081.35,
      "search_query": "Mayor Cochabamba Bolivia 2026",
      "has_pm": 1,
      "has_k": 0,
      "pm_event": "cochabamba-mayoral-election-winner-bolivia-717"
    },
    {
      "lat": 52.37,
      "lng": 4.9,
      "label": "2026 \u2014 Amsterdam \u2014 Mayor (+1 more)",
      "elections": 2,
      "markets": 5,
      "volume": 18448.79,
      "search_query": "Mayor Amsterdam Netherlands 2026",
      "has_pm": 1,
      "has_k": 0
    },
    {
      "lat": 55.76,
      "lng": 37.62,
      "label": "2024 \u2014 Russia \u2014 Parliament",
      "elections": 1,
      "markets": 3,
      "volume": 17871.06,
      "search_query": "Parliament Russia 2024",
      "has_pm": 1,
      "has_k": 0,
      "pm_event": "russia-parliamentary-election-winner"
    },
    {
      "lat": 40.27,
      "lng": -86.13,
      "label": "2026 \u2014 IN-1 \u2014 House (+10 more)",
      "elections": 11,
      "markets": 19,
      "volume": 16050.95,
      "search_query": "House IN-1 United States 2026",
      "has_pm": 1,
      "has_k": 1,
      "kalshi_event": "HOUSEIN1-26",
      "pm_event": "in-01-house-election-winner"
    },
    {
      "lat": 14.07,
      "lng": -87.19,
      "label": "2025 \u2014 Honduras \u2014 Parliament",
      "elections": 1,
      "markets": 4,
      "volume": 15875.0,
      "search_query": "Parliament Honduras 2025",
      "has_pm": 0,
      "has_k": 1,
      "kalshi_event": "KXHONDURASCONGRESS-25"
    },
    {
      "lat": -17.78,
      "lng": -63.18,
      "label": "2026 \u2014 Santa Cruz de la Sierra \u2014 Mayor",
      "elections": 1,
      "markets": 11,
      "volume": 15089.72,
      "search_query": "Mayor Santa Cruz de la Sierra Bolivia 2026",
      "has_pm": 1,
      "has_k": 0,
      "pm_event": "santa-cruz-de-la-sierra-mayoral-election-winner-bolivia"
    },
    {
      "lat": 43.3,
      "lng": 5.37,
      "label": "2024 \u2014 Marseille \u2014 Mayor",
      "elections": 1,
      "markets": 1,
      "volume": 13651.06,
      "search_query": "Mayor Marseille France 2024",
      "has_pm": 1,
      "has_k": 0,
      "pm_event": "marseille-mayor-election-winner"
    },
    {
      "lat": 38.6,
      "lng": -80.45,
      "label": "2026 \u2014 West Virginia \u2014 Senate (+5 more)",
      "elections": 6,
      "markets": 18,
      "volume": 13423.27,
      "search_query": "Senate West Virginia United States 2026",
      "has_pm": 1,
      "has_k": 1,
      "kalshi_event": "SENATEWV-26",
      "pm_event": "west-virginia-senate-election-winner"
    },
    {
      "lat": 13.44,
      "lng": 144.79,
      "label": "2026 \u2014 Guam \u2014 Governor",
      "elections": 1,
      "markets": 6,
      "volume": 13082.36,
      "search_query": "Governor Guam United States 2026",
      "has_pm": 1,
      "has_k": 0,
      "pm_event": "guam-governor-republican-primary-winner-363"
    },
    {
      "lat": 38.91,
      "lng": -75.53,
      "label": "2024 \u2014 Delaware \u2014 Senate (+4 more)",
      "elections": 5,
      "markets": 11,
      "volume": 12517.32,
      "search_query": "Senate Delaware United States 2024",
      "has_pm": 1,
      "has_k": 1,
      "kalshi_event": "SENATEDE-26",
      "pm_event": "delaware-democratic-senate-primary-winner"
    },
    {
      "lat": 55.95,
      "lng": -3.19,
      "label": "2026 \u2014 Scotland \u2014 Parliament (+1 more)",
      "elections": 2,
      "markets": 8,
      "volume": 11480.98,
      "search_query": "Parliament Scotland United Kingdom 2026",
      "has_pm": 1,
      "has_k": 0,
      "pm_event": "scotland-parliamentary-election-winner"
    },
    {
      "lat": 39.93,
      "lng": 32.85,
      "label": "2028 \u2014 Turkey \u2014 President (+1 more)",
      "elections": 2,
      "markets": 17,
      "volume": 10077.0,
      "search_query": "President Turkey 2028",
      "has_pm": 0,
      "has_k": 1,
      "kalshi_event": "KXTURKEYPRES-28"
    },
    {
      "lat": 43.97,
      "lng": -99.9,
      "label": "2026 \u2014 South Dakota \u2014 Governor (+5 more)",
      "elections": 6,
      "markets": 21,
      "volume": 9945.08,
      "search_query": "Governor South Dakota United States 2026",
      "has_pm": 1,
      "has_k": 1,
      "kalshi_event": "GOVPARTYSD-26",
      "pm_event": "south-dakota-governor-winner-2026"
    },
    {
      "lat": 22.57,
      "lng": 88.36,
      "label": "2026 \u2014 West Bengal \u2014 Regional",
      "elections": 1,
      "markets": 6,
      "volume": 9592.11,
      "search_query": "Regional West Bengal India 2026",
      "has_pm": 1,
      "has_k": 0,
      "pm_event": "west-bengal-legislative-assembly-election-winner"
    },
    {
      "lat": 51.48,
      "lng": -3.18,
      "label": "2026 \u2014 Wales \u2014 Regional",
      "elections": 1,
      "markets": 6,
      "volume": 9368.73,
      "search_query": "Regional Wales United Kingdom 2026",
      "has_pm": 1,
      "has_k": 0,
      "pm_event": "wales-parliamentary-election-winner"
    },
    {
      "lat": 9.93,
      "lng": 76.26,
      "label": "2026 \u2014 Kerala \u2014 Regional",
      "elections": 1,
      "markets": 11,
      "volume": 9118.86,
      "search_query": "Regional Kerala India 2026",
      "has_pm": 1,
      "has_k": 0,
      "pm_event": "kerala-legislative-assembly-election-winner"
    },
    {
      "lat": 11.93,
      "lng": 79.83,
      "label": "2026 \u2014 Puducherry \u2014 Regional",
      "elections": 1,
      "markets": 8,
      "volume": 8542.76,
      "search_query": "Regional Puducherry India 2026",
      "has_pm": 1,
      "has_k": 0,
      "pm_event": "puducherry-legislative-assembly-election-winner"
    },
    {
      "lat": 19.9,
      "lng": -155.58,
      "label": "2028 \u2014 Hawaii \u2014 Senate (+3 more)",
      "elections": 4,
      "markets": 8,
      "volume": 7774.9,
      "search_query": "Senate Hawaii United States 2028",
      "has_pm": 1,
      "has_k": 1,
      "kalshi_event": "SENATEHI-28",
      "pm_event": "hawaii-governor-winner-2026"
    },
    {
      "lat": 26.14,
      "lng": 91.74,
      "label": "2026 \u2014 Assam \u2014 Regional",
      "elections": 1,
      "markets": 10,
      "volume": 6852.82,
      "search_query": "Regional Assam India 2026",
      "has_pm": 1,
      "has_k": 0,
      "pm_event": "assam-legislative-assembly-election-winner"
    },
    {
      "lat": 9.01,
      "lng": 38.75,
      "label": "2026 \u2014 Ethiopia \u2014 Parliament",
      "elections": 1,
      "markets": 5,
      "volume": 5822.29,
      "search_query": "Parliament Ethiopia 2026",
      "has_pm": 1,
      "has_k": 0,
      "pm_event": "ethiopia-parliamentary-election-winner"
    },
    {
      "lat": 36.64,
      "lng": 127.49,
      "label": "2026 \u2014 Chungcheongbuk Province \u2014 Regional",
      "elections": 1,
      "markets": 8,
      "volume": 4141.45,
      "search_query": "Regional Chungcheongbuk Province South Korea 2026",
      "has_pm": 1,
      "has_k": 0,
      "pm_event": "chungcheongbuk-province-governor-election-winner"
    },
    {
      "lat": 47.5,
      "lng": 19.04,
      "label": "2026 \u2014 Hungary \u2014 Parliament",
      "elections": 1,
      "markets": 2,
      "volume": 3961.0,
      "search_query": "Parliament Hungary 2026",
      "has_pm": 0,
      "has_k": 1,
      "kalshi_event": "KXHUNGARYPARLI-26"
    },
    {
      "lat": 47.01,
      "lng": 28.86,
      "label": "2028 \u2014 Moldova \u2014 President",
      "elections": 1,
      "markets": 7,
      "volume": 3880.0,
      "search_query": "President Moldova 2028",
      "has_pm": 0,
      "has_k": 1,
      "kalshi_event": "KXMOLDOVAPRES-28"
    },
    {
      "lat": -34.6,
      "lng": -58.38,
      "label": "2027 \u2014 Argentina \u2014 President",
      "elections": 1,
      "markets": 5,
      "volume": 3838.0,
      "search_query": "President Argentina 2027",
      "has_pm": 0,
      "has_k": 1,
      "kalshi_event": "KXARGENTINAPRES-27"
    },
    {
      "lat": 56.95,
      "lng": 24.11,
      "label": "2026 \u2014 Latvia \u2014 Parliament",
      "elections": 1,
      "markets": 18,
      "volume": 2673.33,
      "search_query": "Parliament Latvia 2026",
      "has_pm": 1,
      "has_k": 1,
      "kalshi_event": "KXLATVIAPARLIAMENT-26DEC31",
      "pm_event": "latvian-parliamentary-election-winner"
    },
    {
      "lat": 36.66,
      "lng": 126.67,
      "label": "2026 \u2014 Chungcheongnam Province \u2014 Regional",
      "elections": 1,
      "markets": 9,
      "volume": 1830.72,
      "search_query": "Regional Chungcheongnam Province South Korea 2026",
      "has_pm": 1,
      "has_k": 0,
      "pm_event": "chungcheongnam-province-governor-election-winner"
    },
    {
      "lat": 35.17,
      "lng": 33.36,
      "label": "2026 \u2014 Cyprus \u2014 Parliament (+1 more)",
      "elections": 2,
      "markets": 3,
      "volume": 1753.57,
      "search_query": "Parliament Cyprus 2026",
      "has_pm": 1,
      "has_k": 0,
      "pm_event": "cyprus-house-of-representatives-election-winner"
    },
    {
      "lat": 40.42,
      "lng": -3.7,
      "label": "2027 \u2014 Spain \u2014 Parliament",
      "elections": 1,
      "markets": 4,
      "volume": 1675.0,
      "search_query": "Parliament Spain 2027",
      "has_pm": 0,
      "has_k": 1,
      "kalshi_event": "KXSPAINPARLI-27"
    },
    {
      "lat": 47.55,
      "lng": -101.0,
      "label": "2028 \u2014 North Dakota \u2014 Senate (+2 more)",
      "elections": 3,
      "markets": 6,
      "volume": 1598.0,
      "search_query": "Senate North Dakota United States 2028",
      "has_pm": 0,
      "has_k": 1,
      "kalshi_event": "SENATEND-28"
    },
    {
      "lat": 37.98,
      "lng": 23.73,
      "label": "2027 \u2014 Greece \u2014 Parliament",
      "elections": 1,
      "markets": 3,
      "volume": 1258.0,
      "search_query": "Parliament Greece 2027",
      "has_pm": 0,
      "has_k": 1,
      "kalshi_event": "KXGREECEPARLI-27"
    },
    {
      "lat": 55.68,
      "lng": 12.57,
      "label": "2026 \u2014 Denmark \u2014 Parliament",
      "elections": 1,
      "markets": 4,
      "volume": 1199.0,
      "search_query": "Parliament Denmark 2026",
      "has_pm": 0,
      "has_k": 1,
      "kalshi_event": "KXDENMARKPARLI-26"
    },
    {
      "lat": 14.6,
      "lng": 120.98,
      "label": "2028 \u2014 Philippines \u2014 President (+1 more)",
      "elections": 2,
      "markets": 12,
      "volume": 1189.0,
      "search_query": "President Philippines 2028",
      "has_pm": 0,
      "has_k": 1,
      "kalshi_event": "KXPHILIPPINESPRES-28"
    },
    {
      "lat": 53.35,
      "lng": -6.26,
      "label": "2026 \u2014 Dublin Central \u2014 Parliament",
      "elections": 1,
      "markets": 4,
      "volume": 1053.98,
      "search_query": "Parliament Dublin Central Ireland 2026",
      "has_pm": 1,
      "has_k": 0
    },
    {
      "lat": 9.56,
      "lng": 44.06,
      "label": "2024 \u2014 Somaliland \u2014 Parliament",
      "elections": 1,
      "markets": 1,
      "volume": 717.28,
      "search_query": "Parliament Somaliland 2024",
      "has_pm": 1,
      "has_k": 0,
      "pm_event": "somaliland-parliamentary-election-winner"
    },
    {
      "lat": 5.56,
      "lng": -0.19,
      "label": "2028 \u2014 Ghana \u2014 President (+1 more)",
      "elections": 2,
      "markets": 5,
      "volume": 564.0,
      "search_query": "President Ghana 2028",
      "has_pm": 0,
      "has_k": 1,
      "kalshi_event": "KXGHANAPRES-28"
    },
    {
      "lat": 41.9,
      "lng": 12.5,
      "label": "2027 \u2014 Italy \u2014 Parliament",
      "elections": 1,
      "markets": 10,
      "volume": 477.0,
      "search_query": "Parliament Italy 2027",
      "has_pm": 0,
      "has_k": 1,
      "kalshi_event": "KXITALYDEPUTIES-27"
    },
    {
      "lat": 49.28,
      "lng": -123.12,
      "label": "2026 \u2014 Vancouver \u2014 Mayor",
      "elections": 1,
      "markets": 7,
      "volume": 400.0,
      "search_query": "Mayor Vancouver Canada 2026",
      "has_pm": 0,
      "has_k": 1,
      "kalshi_event": "KXVANCOUVERMAYOR-26OCT17"
    },
    {
      "lat": 18.47,
      "lng": -69.9,
      "label": "2028 \u2014 Dominican Republic \u2014 Parliament",
      "elections": 1,
      "markets": 6,
      "volume": 310.0,
      "search_query": "Parliament Dominican Republic 2028",
      "has_pm": 0,
      "has_k": 1,
      "kalshi_event": "KXDOMINICANREPUBLICSENATE-28"
    },
    {
      "lat": 10.46,
      "lng": -64.17,
      "label": "2026 \u2014 Sucre \u2014 Mayor",
      "elections": 1,
      "markets": 1,
      "volume": 237.98,
      "search_query": "Mayor Sucre Venezuela 2026",
      "has_pm": 1,
      "has_k": 0,
      "pm_event": "sucre-mayoral-election-winner-bolivia"
    },
    {
      "lat": 35.68,
      "lng": 139.69,
      "label": "2028 \u2014 Japan \u2014 Parliament",
      "elections": 1,
      "markets": 2,
      "volume": 216.0,
      "search_query": "Parliament Japan 2028",
      "has_pm": 0,
      "has_k": 1,
      "kalshi_event": "KXJAPANHOUSE-28"
    },
    {
      "lat": 6.45,
      "lng": 3.39,
      "label": "2027 \u2014 Nigeria \u2014 President (+1 more)",
      "elections": 2,
      "markets": 7,
      "volume": 190.0,
      "search_query": "President Nigeria 2027",
      "has_pm": 0,
      "has_k": 1,
      "kalshi_event": "KXPRESNIGERIA-27"
    },
    {
      "lat": 60.17,
      "lng": 24.94,
      "label": "2027 \u2014 Finland \u2014 Parliament",
      "elections": 1,
      "markets": 5,
      "volume": 110.0,
      "search_query": "Parliament Finland 2027",
      "has_pm": 0,
      "has_k": 1,
      "kalshi_event": "KXFINLANDPARLI-27"
    },
    {
      "lat": 52.23,
      "lng": 21.01,
      "label": "2027 \u2014 Poland \u2014 Parliament",
      "elections": 1,
      "markets": 5,
      "volume": 100.0,
      "search_query": "Parliament Poland 2027",
      "has_pm": 0,
      "has_k": 1,
      "kalshi_event": "KXPOLANDSEJM-27"
    },
    {
      "lat": 47.89,
      "lng": 106.91,
      "label": "2027 \u2014 Mongolia \u2014 President",
      "elections": 1,
      "markets": 2,
      "volume": 54.0,
      "search_query": "President Mongolia 2027",
      "has_pm": 0,
      "has_k": 1,
      "kalshi_event": "KXMONGOLIAPRES-27"
    },
    {
      "lat": 19.43,
      "lng": -99.13,
      "label": "2027 \u2014 Mexico \u2014 Parliament",
      "elections": 1,
      "markets": 6,
      "volume": 36.0,
      "search_query": "Parliament Mexico 2027",
      "has_pm": 0,
      "has_k": 1,
      "kalshi_event": "KXMEXICODEPUTIES-27"
    },
    {
      "lat": 41.72,
      "lng": 44.79,
      "label": "2028 \u2014 Georgia \u2014 Parliament",
      "elections": 1,
      "markets": 2,
      "volume": 23.0,
      "search_query": "Parliament Georgia 2028",
      "has_pm": 0,
      "has_k": 1,
      "kalshi_event": "KXGEORGIAPARLI-28"
    },
    {
      "lat": 48.15,
      "lng": 17.11,
      "label": "2027 \u2014 Slovakia \u2014 Parliament",
      "elections": 1,
      "markets": 3,
      "volume": 17.0,
      "search_query": "Parliament Slovakia 2027",
      "has_pm": 0,
      "has_k": 1,
      "kalshi_event": "KXSLOVAKIAPARLI-27"
    },
    {
      "lat": -15.39,
      "lng": 28.32,
      "label": "2026 \u2014 Zambia \u2014 Parliament",
      "elections": 1,
      "markets": 2,
      "volume": 15.0,
      "search_query": "Parliament Zambia 2026",
      "has_pm": 0,
      "has_k": 1,
      "kalshi_event": "KXZAMBIAASSEMBLY-26"
    },
    {
      "lat": 3.14,
      "lng": 101.69,
      "label": "2027 \u2014 Malaysia \u2014 Parliament",
      "elections": 1,
      "markets": 3,
      "volume": 5.0,
      "search_query": "Parliament Malaysia 2027",
      "has_pm": 0,
      "has_k": 1,
      "kalshi_event": "KXMALAYSIAPARLI-2-27"
    },
    {
      "lat": -33.87,
      "lng": 151.21,
      "label": "2028 \u2014 Australia \u2014 Parliament",
      "elections": 1,
      "markets": 6,
      "volume": 2.0,
      "search_query": "Parliament Australia 2028",
      "has_pm": 0,
      "has_k": 1,
      "kalshi_event": "KXAUSTRALIAHOUSE-28"
    },
    {
      "lat": -1.29,
      "lng": 36.82,
      "label": "2027 \u2014 Kenya \u2014 Parliament",
      "elections": 1,
      "markets": 6,
      "volume": 1.0,
      "search_query": "Parliament Kenya 2027",
      "has_pm": 0,
      "has_k": 1,
      "kalshi_event": "KXKENYASENATE-27"
    },
    {
      "lat": 14.63,
      "lng": -90.51,
      "label": "2027 \u2014 Guatemala \u2014 Parliament",
      "elections": 1,
      "markets": 7,
      "volume": 0.0,
      "search_query": "Parliament Guatemala 2027",
      "has_pm": 0,
      "has_k": 1,
      "kalshi_event": "KXGUATEMALACONGRESS-27"
    },
    {
      "lat": -25.26,
      "lng": -57.58,
      "label": "2028 \u2014 Paraguay \u2014 Parliament",
      "elections": 1,
      "markets": 12,
      "volume": 0.0,
      "search_query": "Parliament Paraguay 2028",
      "has_pm": 0,
      "has_k": 1,
      "kalshi_event": "KXPARAGUAYDEPUTIES-28"
    },
    {
      "lat": 13.45,
      "lng": -16.58,
      "label": "2026 \u2014 Gambia \u2014 President",
      "elections": 1,
      "markets": 4,
      "volume": 0.0,
      "search_query": "President Gambia 2026",
      "has_pm": 0,
      "has_k": 1,
      "kalshi_event": "KXTHEGAMBIAPRES-26"
    },
    {
      "lat": 43.65,
      "lng": -79.38,
      "label": "2026 \u2014 Toronto \u2014 Mayor",
      "elections": 1,
      "markets": 4,
      "volume": 0.0,
      "search_query": "Mayor Toronto Canada 2026",
      "has_pm": 0,
      "has_k": 1,
      "kalshi_event": "KXTORONTOMAYOR-26OCT26"
    }
  ],
  "completed": [
    {
      "lat": 38.9,
      "lng": -77.04,
      "label": "2024 \u2014 United States \u2014 Vice President (+30 more)",
      "elections": 31,
      "markets": 287,
      "volume": 946966224.53,
      "search_query": "Vice President United States 2024",
      "has_pm": 1,
      "has_k": 1,
      "kalshi_event": "KXMAYORSANANT-25",
      "pm_event": "democratic-vp-nominee-on-election-day"
    },
    {
      "lat": 44.43,
      "lng": 26.1,
      "label": "2024 \u2014 Romania \u2014 President (+5 more)",
      "elections": 6,
      "markets": 68,
      "volume": 668435520.65,
      "search_query": "President Romania 2024",
      "has_pm": 1,
      "has_k": 1,
      "kalshi_event": "KXPRESROMANIA24",
      "pm_event": "romania-presidential-election"
    },
    {
      "lat": 40.71,
      "lng": -74.01,
      "label": "2025 \u2014 New York City \u2014 Mayor (+5 more)",
      "elections": 6,
      "markets": 171,
      "volume": 484780471.89,
      "search_query": "Mayor New York City United States 2025",
      "has_pm": 1,
      "has_k": 1,
      "kalshi_event": "KXMAYORNYCPARTY-25",
      "pm_event": "new-york-city-mayoral-election"
    },
    {
      "lat": 37.57,
      "lng": 126.98,
      "label": "2024 \u2014 South Korea \u2014 President (+6 more)",
      "elections": 7,
      "markets": 85,
      "volume": 325888206.61,
      "search_query": "President South Korea 2024",
      "has_pm": 1,
      "has_k": 1,
      "kalshi_event": "KXSKPRES-30",
      "pm_event": "next-president-of-south-korea"
    },
    {
      "lat": 41.2,
      "lng": -77.19,
      "label": "2024 \u2014 Pennsylvania \u2014 President (+11 more)",
      "elections": 12,
      "markets": 45,
      "volume": 254886043.89,
      "search_query": "President Pennsylvania United States 2024",
      "has_pm": 1,
      "has_k": 1,
      "kalshi_event": "PRESPARTYPA-24",
      "pm_event": "pennsylvania-margin-of-victory"
    },
    {
      "lat": 52.52,
      "lng": 13.41,
      "label": "2024 \u2014 Germany \u2014 Parliament (+1 more)",
      "elections": 2,
      "markets": 24,
      "volume": 116579910.37,
      "search_query": "Parliament Germany 2024",
      "has_pm": 1,
      "has_k": 1,
      "kalshi_event": "KXGERMANYPARTY-25",
      "pm_event": "germany-parliamentary-election"
    },
    {
      "lat": 38.8,
      "lng": -116.42,
      "label": "2024 \u2014 Nevada \u2014 President (+4 more)",
      "elections": 5,
      "markets": 31,
      "volume": 93498153.76,
      "search_query": "President Nevada United States 2024",
      "has_pm": 1,
      "has_k": 1,
      "kalshi_event": "PRESPARTYNV-24",
      "pm_event": "nevada-margin-of-victory"
    },
    {
      "lat": -33.45,
      "lng": -70.67,
      "label": "2024 \u2014 Chile \u2014 President (+5 more)",
      "elections": 6,
      "markets": 47,
      "volume": 91838476.39,
      "search_query": "President Chile 2024",
      "has_pm": 1,
      "has_k": 1,
      "kalshi_event": "KXPRESCHILE-25",
      "pm_event": "chile-presidential-election"
    },
    {
      "lat": 34.05,
      "lng": -111.09,
      "label": "2024 \u2014 Arizona \u2014 Senate (+10 more)",
      "elections": 11,
      "markets": 54,
      "volume": 88793502.6,
      "search_query": "Senate Arizona United States 2024",
      "has_pm": 1,
      "has_k": 1,
      "kalshi_event": "SENATEAZ-24",
      "pm_event": "arizona-us-senate-election-winner"
    },
    {
      "lat": 43.78,
      "lng": -88.79,
      "label": "2024 \u2014 Wisconsin \u2014 President (+7 more)",
      "elections": 8,
      "markets": 35,
      "volume": 68663483.46,
      "search_query": "President Wisconsin United States 2024",
      "has_pm": 1,
      "has_k": 1,
      "kalshi_event": "PRESPARTYWI-24",
      "pm_event": "wisconsin-margin-of-victory"
    },
    {
      "lat": 41.88,
      "lng": -93.1,
      "label": "2024 \u2014 Iowa \u2014 President (+4 more)",
      "elections": 5,
      "markets": 37,
      "volume": 67037524.65,
      "search_query": "President Iowa United States 2024",
      "has_pm": 1,
      "has_k": 1,
      "kalshi_event": "PRESPARTYIA-24",
      "pm_event": "iowa-margin-of-victory"
    },
    {
      "lat": 52.37,
      "lng": 4.9,
      "label": "2025 \u2014 Netherlands \u2014 Parliament (+1 more)",
      "elections": 2,
      "markets": 94,
      "volume": 47279450.18,
      "search_query": "Parliament Netherlands 2025",
      "has_pm": 1,
      "has_k": 1,
      "kalshi_event": "KXPARTYWINNL-25",
      "pm_event": "netherlands-parliamentary-election"
    },
    {
      "lat": 44.31,
      "lng": -85.6,
      "label": "2024 \u2014 Michigan \u2014 President (+5 more)",
      "elections": 6,
      "markets": 35,
      "volume": 46767005.55,
      "search_query": "President Michigan United States 2024",
      "has_pm": 1,
      "has_k": 1,
      "kalshi_event": "PRESPARTYMI-24",
      "pm_event": "michigan-presidential-election-winner"
    },
    {
      "lat": 32.68,
      "lng": -83.22,
      "label": "2024 \u2014 Georgia \u2014 President (+8 more)",
      "elections": 9,
      "markets": 27,
      "volume": 43292169.75,
      "search_query": "President Georgia United States 2024",
      "has_pm": 1,
      "has_k": 1,
      "kalshi_event": "PRESPARTYGA-24",
      "pm_event": "georgia-presidential-election-winner"
    },
    {
      "lat": -23.55,
      "lng": -46.64,
      "label": "2024 \u2014 S\u00e3o Paulo \u2014 Mayor (+1 more)",
      "elections": 2,
      "markets": 11,
      "volume": 41908560.39,
      "search_query": "Mayor S\u00e3o Paulo Brazil 2024",
      "has_pm": 1,
      "has_k": 0,
      "pm_event": "so-paulo-mayoral-election-2024"
    },
    {
      "lat": 53.35,
      "lng": -6.26,
      "label": "2025 \u2014 Ireland \u2014 President (+2 more)",
      "elections": 3,
      "markets": 58,
      "volume": 38363606.35,
      "search_query": "President Ireland 2025",
      "has_pm": 1,
      "has_k": 1,
      "kalshi_event": "KXIRELANDPRES-25",
      "pm_event": "ireland-presidential-election"
    },
    {
      "lat": 52.23,
      "lng": 21.01,
      "label": "2024 \u2014 Poland \u2014 President (+23 more)",
      "elections": 24,
      "markets": 58,
      "volume": 35709693.24,
      "search_query": "President Poland 2024",
      "has_pm": 1,
      "has_k": 1,
      "kalshi_event": "KXPRESPOLAND",
      "pm_event": "poland-presidential-election"
    },
    {
      "lat": -16.5,
      "lng": -68.15,
      "label": "2025 \u2014 Bolivia \u2014 President (+2 more)",
      "elections": 3,
      "markets": 70,
      "volume": 34123440.58,
      "search_query": "President Bolivia 2025",
      "has_pm": 1,
      "has_k": 1,
      "kalshi_event": "KXBOLIVIAPRES-25",
      "pm_event": "bolivia-presidential-election"
    },
    {
      "lat": 35.76,
      "lng": -79.02,
      "label": "2024 \u2014 North Carolina \u2014 President (+6 more)",
      "elections": 7,
      "markets": 26,
      "volume": 30456402.64,
      "search_query": "President North Carolina United States 2024",
      "has_pm": 1,
      "has_k": 1,
      "kalshi_event": "PRESPARTYNC-24",
      "pm_event": "north-carolina-presidential-election-winner"
    },
    {
      "lat": 37.43,
      "lng": -78.66,
      "label": "2024 \u2014 Virginia \u2014 President (+15 more)",
      "elections": 16,
      "markets": 56,
      "volume": 29258962.64,
      "search_query": "President Virginia United States 2024",
      "has_pm": 1,
      "has_k": 1,
      "kalshi_event": "PRESPARTYWV-24",
      "pm_event": "virginia-presidential-election-winner"
    },
    {
      "lat": 27.99,
      "lng": -81.76,
      "label": "2024 \u2014 Florida \u2014 President (+10 more)",
      "elections": 11,
      "markets": 49,
      "volume": 23483882.49,
      "search_query": "President Florida United States 2024",
      "has_pm": 1,
      "has_k": 1,
      "kalshi_event": "SENATEFL-24",
      "pm_event": "will-trump-win-florida-by-8-points"
    },
    {
      "lat": 40.06,
      "lng": -74.41,
      "label": "2025 \u2014 New Jersey \u2014 Governor (+7 more)",
      "elections": 8,
      "markets": 84,
      "volume": 23341920.42,
      "search_query": "Governor New Jersey United States 2025",
      "has_pm": 1,
      "has_k": 1,
      "kalshi_event": "GOVPARTYNJ-25",
      "pm_event": "new-jersey-governor-election-winner-2025"
    },
    {
      "lat": 40.42,
      "lng": -82.91,
      "label": "2024 \u2014 Ohio \u2014 Senate (+5 more)",
      "elections": 6,
      "markets": 18,
      "volume": 20803016.76,
      "search_query": "Senate Ohio United States 2024",
      "has_pm": 1,
      "has_k": 1,
      "kalshi_event": "SENATEOH-24",
      "pm_event": "ohio-us-senate-election-winner"
    },
    {
      "lat": 31.97,
      "lng": -99.9,
      "label": "2024 \u2014 Texas \u2014 President (+6 more)",
      "elections": 7,
      "markets": 14,
      "volume": 19977031.89,
      "search_query": "President Texas United States 2024",
      "has_pm": 1,
      "has_k": 1,
      "kalshi_event": "SENATETX-24",
      "pm_event": "texas-presidential-election-winner"
    },
    {
      "lat": 43.19,
      "lng": -71.57,
      "label": "2024 \u2014 New Hampshire \u2014 President (+3 more)",
      "elections": 4,
      "markets": 24,
      "volume": 16717049.96,
      "search_query": "President New Hampshire United States 2024",
      "has_pm": 1,
      "has_k": 1,
      "kalshi_event": "PRESPARTYNH-24",
      "pm_event": "new-hampshire-presidential-election-winner"
    },
    {
      "lat": -33.87,
      "lng": 151.21,
      "label": "2025 \u2014 Australia \u2014 Prime Minister (+4 more)",
      "elections": 5,
      "markets": 25,
      "volume": 16493290.74,
      "search_query": "Prime Minister Australia 2025",
      "has_pm": 1,
      "has_k": 1,
      "kalshi_event": "KXAUSTRALIA",
      "pm_event": "next-prime-minister-of-australia"
    },
    {
      "lat": 42.17,
      "lng": -74.95,
      "label": "2024 \u2014 New York \u2014 President (+10 more)",
      "elections": 11,
      "markets": 27,
      "volume": 14067079.47,
      "search_query": "President New York United States 2024",
      "has_pm": 1,
      "has_k": 1,
      "kalshi_event": "HOUSENY4-24",
      "pm_event": "new-york-presidential-election-winner-2024"
    },
    {
      "lat": -34.6,
      "lng": -58.38,
      "label": "2025 \u2014 Argentina \u2014 Parliament (+3 more)",
      "elections": 4,
      "markets": 21,
      "volume": 12873139.18,
      "search_query": "Parliament Argentina 2025",
      "has_pm": 1,
      "has_k": 1,
      "kalshi_event": "KXARGENTINAPARTY",
      "pm_event": "which-party-wins-most-seats-in-argentina-deputies-election"
    },
    {
      "lat": 35.68,
      "lng": 139.69,
      "label": "2026 \u2014 Japan \u2014 Prime Minister (+3 more)",
      "elections": 4,
      "markets": 67,
      "volume": 12850332.22,
      "search_query": "Prime Minister Japan 2026",
      "has_pm": 1,
      "has_k": 0,
      "pm_event": "prime-minister-of-japan-after-snap-election"
    },
    {
      "lat": 46.73,
      "lng": -94.69,
      "label": "2024 \u2014 Minnesota \u2014 President (+5 more)",
      "elections": 6,
      "markets": 18,
      "volume": 10396907.29,
      "search_query": "President Minnesota United States 2024",
      "has_pm": 1,
      "has_k": 1,
      "kalshi_event": "PRESPARTYMN-24",
      "pm_event": "minnesota-presidential-election-winner"
    },
    {
      "lat": 46.5,
      "lng": -66.16,
      "label": "2024 \u2014 New Brunswick \u2014 Parliament (+2 more)",
      "elections": 3,
      "markets": 8,
      "volume": 10178391.07,
      "search_query": "Parliament New Brunswick Canada 2024",
      "has_pm": 1,
      "has_k": 0,
      "pm_event": "which-party-wins-most-seats-in-new-brunswick"
    },
    {
      "lat": 46.24,
      "lng": -63.13,
      "label": "2024 \u2014 Prince Edward Island \u2014 Parliament",
      "elections": 1,
      "markets": 4,
      "volume": 9955231.37,
      "search_query": "Parliament Prince Edward Island Canada 2024",
      "has_pm": 1,
      "has_k": 0,
      "pm_event": "which-party-wins-most-seats-in-prince-edward-island"
    },
    {
      "lat": 40.63,
      "lng": -89.4,
      "label": "2024 \u2014 Illinois \u2014 President",
      "elections": 1,
      "markets": 3,
      "volume": 9834569.23,
      "search_query": "President Illinois United States 2024",
      "has_pm": 1,
      "has_k": 0,
      "pm_event": "illinois-presidential-election-winner"
    },
    {
      "lat": 45.42,
      "lng": -75.69,
      "label": "2024 \u2014 Canada \u2014 Parliament (+4 more)",
      "elections": 5,
      "markets": 51,
      "volume": 9601178.73,
      "search_query": "Parliament Canada 2024",
      "has_pm": 1,
      "has_k": 1,
      "kalshi_event": "KXNEXTCANADAPM-26",
      "pm_event": "which-party-will-win-the-popular-vote-in-the-next-canadian-election"
    },
    {
      "lat": 38.72,
      "lng": -9.14,
      "label": "2025 \u2014 Portugal \u2014 Prime Minister (+5 more)",
      "elections": 6,
      "markets": 21,
      "volume": 8818354.95,
      "search_query": "Prime Minister Portugal 2025",
      "has_pm": 1,
      "has_k": 1,
      "kalshi_event": "KXLISBONMAYOR-25OCT12",
      "pm_event": "next-prime-minister-of-portugal-after-the-2025-election"
    },
    {
      "lat": 45.37,
      "lng": -69.6,
      "label": "2024 \u2014 Maine \u2014 President (+7 more)",
      "elections": 8,
      "markets": 24,
      "volume": 7959110.16,
      "search_query": "President Maine United States 2024",
      "has_pm": 1,
      "has_k": 1,
      "kalshi_event": "PRESPARTYME-24",
      "pm_event": "maine-presidential-election-winner"
    },
    {
      "lat": 53.9,
      "lng": 27.57,
      "label": "2025 \u2014 Belarus \u2014 President",
      "elections": 1,
      "markets": 7,
      "volume": 7470877.22,
      "search_query": "President Belarus 2025",
      "has_pm": 1,
      "has_k": 0,
      "pm_event": "belarus-presidential-election"
    },
    {
      "lat": 41.49,
      "lng": -99.9,
      "label": "2024 \u2014 Nebraska \u2014 Senate (+3 more)",
      "elections": 4,
      "markets": 26,
      "volume": 6657275.33,
      "search_query": "Senate Nebraska United States 2024",
      "has_pm": 1,
      "has_k": 1,
      "kalshi_event": "SENATENE-24",
      "pm_event": "nebraska-us-senate-election-winner"
    },
    {
      "lat": 10.49,
      "lng": -66.88,
      "label": "2024 \u2014 Venezuela \u2014 President",
      "elections": 1,
      "markets": 5,
      "volume": 6152241.39,
      "search_query": "President Venezuela 2024",
      "has_pm": 1,
      "has_k": 0,
      "pm_event": "venezuela-election-winner"
    },
    {
      "lat": 39.55,
      "lng": -105.78,
      "label": "2024 \u2014 Colorado \u2014 President (+4 more)",
      "elections": 5,
      "markets": 12,
      "volume": 5802332.77,
      "search_query": "President Colorado United States 2024",
      "has_pm": 1,
      "has_k": 1,
      "kalshi_event": "PRESPARTYCO-24",
      "pm_event": "colorado-presidential-election-winner"
    },
    {
      "lat": 46.8,
      "lng": -110.36,
      "label": "2024 \u2014 Montana \u2014 Senate (+2 more)",
      "elections": 3,
      "markets": 15,
      "volume": 5474084.35,
      "search_query": "Senate Montana United States 2024",
      "has_pm": 1,
      "has_k": 1,
      "kalshi_event": "SENATEMT-24",
      "pm_event": "montana-us-senate-election-winner"
    },
    {
      "lat": 5.82,
      "lng": -55.17,
      "label": "2024 \u2014 Suriname \u2014 President (+1 more)",
      "elections": 2,
      "markets": 20,
      "volume": 5403375.08,
      "search_query": "President Suriname 2024",
      "has_pm": 1,
      "has_k": 0,
      "pm_event": "next-president-of-suriname"
    },
    {
      "lat": -0.18,
      "lng": -78.47,
      "label": "2025 \u2014 Ecuador \u2014 President (+2 more)",
      "elections": 3,
      "markets": 28,
      "volume": 5222837.29,
      "search_query": "President Ecuador 2025",
      "has_pm": 1,
      "has_k": 1,
      "kalshi_event": "KXPRESECUADOR25",
      "pm_event": "ecuador-presidential-election"
    },
    {
      "lat": 36.78,
      "lng": -119.42,
      "label": "2024 \u2014 California \u2014 President (+7 more)",
      "elections": 8,
      "markets": 24,
      "volume": 5137992.33,
      "search_query": "President California United States 2024",
      "has_pm": 1,
      "has_k": 0,
      "pm_event": "california-presidential-election-winner"
    },
    {
      "lat": 19.9,
      "lng": -155.58,
      "label": "2024 \u2014 Hawaii \u2014 President (+1 more)",
      "elections": 2,
      "markets": 9,
      "volume": 5126801.28,
      "search_query": "President Hawaii United States 2024",
      "has_pm": 1,
      "has_k": 1,
      "kalshi_event": "PRESPARTYHI-24",
      "pm_event": "hawaii-presidential-election-winner"
    },
    {
      "lat": 44.98,
      "lng": -93.27,
      "label": "2025 \u2014 Minneapolis \u2014 Mayor (+1 more)",
      "elections": 2,
      "markets": 10,
      "volume": 5007660.34,
      "search_query": "Mayor Minneapolis United States 2025",
      "has_pm": 1,
      "has_k": 1,
      "kalshi_event": "KXMAYORMINN-26",
      "pm_event": "minneapolis-mayoral-election-665"
    },
    {
      "lat": 39.93,
      "lng": 32.85,
      "label": "2023 \u2014 Turkey \u2014 President (+1 more)",
      "elections": 2,
      "markets": 4,
      "volume": 4875678.73,
      "search_query": "President Turkey 2023",
      "has_pm": 1,
      "has_k": 0,
      "pm_event": "istanbul-mayoral-election-2024-which-party-will-win"
    },
    {
      "lat": 14.07,
      "lng": -87.19,
      "label": "2025 \u2014 Honduras \u2014 President",
      "elections": 1,
      "markets": 5,
      "volume": 4682819.0,
      "search_query": "President Honduras 2025",
      "has_pm": 0,
      "has_k": 1,
      "kalshi_event": "KXHONDURASPRES-25"
    },
    {
      "lat": 35.52,
      "lng": -86.58,
      "label": "2025 \u2014 TN-7 \u2014 House (+4 more)",
      "elections": 5,
      "markets": 46,
      "volume": 4379279.25,
      "search_query": "House TN-7 United States 2025",
      "has_pm": 1,
      "has_k": 1,
      "kalshi_event": "HOUSETN7S-25",
      "pm_event": "tennessee-house-special-election"
    },
    {
      "lat": 34.52,
      "lng": -105.87,
      "label": "2024 \u2014 New Mexico \u2014 President (+2 more)",
      "elections": 3,
      "markets": 10,
      "volume": 4238379.26,
      "search_query": "President New Mexico United States 2024",
      "has_pm": 1,
      "has_k": 1,
      "kalshi_event": "PRESPARTYNM-24",
      "pm_event": "new-mexico-presidential-election-winner-2024"
    },
    {
      "lat": 47.61,
      "lng": -122.33,
      "label": "2025 \u2014 Seattle \u2014 Mayor",
      "elections": 1,
      "markets": 18,
      "volume": 3886376.91,
      "search_query": "Mayor Seattle United States 2025",
      "has_pm": 1,
      "has_k": 1,
      "kalshi_event": "KXMAYORSEATTLE-25",
      "pm_event": "seattle-mayoral-election"
    },
    {
      "lat": 25.03,
      "lng": 121.57,
      "label": "2024 \u2014 Taiwan \u2014 President (+1 more)",
      "elections": 2,
      "markets": 4,
      "volume": 3823421.69,
      "search_query": "President Taiwan 2024",
      "has_pm": 1,
      "has_k": 0,
      "pm_event": "taiwan-presidential-election-who-will-win"
    },
    {
      "lat": 64.2,
      "lng": -152.49,
      "label": "2024 \u2014 Alaska \u2014 President (+4 more)",
      "elections": 5,
      "markets": 14,
      "volume": 3705085.82,
      "search_query": "President Alaska United States 2024",
      "has_pm": 1,
      "has_k": 1,
      "kalshi_event": "PRESPARTYAK-24",
      "pm_event": "alaska-presidential-election-winner"
    },
    {
      "lat": 38.46,
      "lng": -92.29,
      "label": "2024 \u2014 Missouri \u2014 President (+3 more)",
      "elections": 4,
      "markets": 17,
      "volume": 3116065.87,
      "search_query": "President Missouri United States 2024",
      "has_pm": 1,
      "has_k": 1,
      "kalshi_event": "SENATEMO-24",
      "pm_event": "missouri-presidential-election-winner"
    },
    {
      "lat": 37.67,
      "lng": -84.67,
      "label": "2024 \u2014 Kentucky \u2014 President (+2 more)",
      "elections": 3,
      "markets": 7,
      "volume": 2706442.09,
      "search_query": "President Kentucky United States 2024",
      "has_pm": 1,
      "has_k": 1,
      "kalshi_event": "PRESPARTYKY-24",
      "pm_event": "kentucky-presidential-election-winner"
    },
    {
      "lat": 49.28,
      "lng": -123.12,
      "label": "2024 \u2014 British Columbia \u2014 Parliament (+2 more)",
      "elections": 3,
      "markets": 12,
      "volume": 2540240.61,
      "search_query": "Parliament British Columbia Canada 2024",
      "has_pm": 1,
      "has_k": 0,
      "pm_event": "which-party-wins-most-seats-in-british-columbia"
    },
    {
      "lat": 39.05,
      "lng": -76.64,
      "label": "2024 \u2014 Maryland \u2014 Senate (+2 more)",
      "elections": 3,
      "markets": 12,
      "volume": 2533418.83,
      "search_query": "Senate Maryland United States 2024",
      "has_pm": 1,
      "has_k": 1,
      "kalshi_event": "SENATEMD-24",
      "pm_event": "maryland-us-senate-election-winner"
    },
    {
      "lat": 42.41,
      "lng": -71.38,
      "label": "2024 \u2014 Massachusetts \u2014 Senate (+2 more)",
      "elections": 3,
      "markets": 13,
      "volume": 2527251.67,
      "search_query": "Senate Massachusetts United States 2024",
      "has_pm": 1,
      "has_k": 0,
      "pm_event": "wisconsin-supreme-court-election-susan-crawford-margin-of-victory"
    },
    {
      "lat": 44.56,
      "lng": -72.58,
      "label": "2024 \u2014 Vermont \u2014 President (+4 more)",
      "elections": 5,
      "markets": 15,
      "volume": 2421465.67,
      "search_query": "President Vermont United States 2024",
      "has_pm": 1,
      "has_k": 1,
      "kalshi_event": "PRESPARTYVT-24",
      "pm_event": "which-state-will-kamala-win-by-the-largest-margin"
    },
    {
      "lat": 43.08,
      "lng": -107.29,
      "label": "2024 \u2014 Wyoming \u2014 President (+1 more)",
      "elections": 2,
      "markets": 12,
      "volume": 2408689.94,
      "search_query": "President Wyoming United States 2024",
      "has_pm": 1,
      "has_k": 1,
      "kalshi_event": "PRESPARTYWY-24",
      "pm_event": "wyoming-presidential-election-winner"
    },
    {
      "lat": 41.9,
      "lng": 12.45,
      "label": "2025 \u2014 Vatican City \u2014 Other",
      "elections": 1,
      "markets": 1,
      "volume": 2254075.41,
      "search_query": "Other Vatican City 2025",
      "has_pm": 1,
      "has_k": 0,
      "pm_event": "who-will-be-the-next-pope"
    },
    {
      "lat": 33.84,
      "lng": -81.16,
      "label": "2024 \u2014 South Carolina \u2014 President (+1 more)",
      "elections": 2,
      "markets": 9,
      "volume": 2148094.26,
      "search_query": "President South Carolina United States 2024",
      "has_pm": 1,
      "has_k": 1,
      "kalshi_event": "PRESPARTYSC-24",
      "pm_event": "south-carolina-republican-primary-winner"
    },
    {
      "lat": 34.8,
      "lng": -92.2,
      "label": "2024 \u2014 Arkansas \u2014 President (+1 more)",
      "elections": 2,
      "markets": 7,
      "volume": 2104061.69,
      "search_query": "President Arkansas United States 2024",
      "has_pm": 1,
      "has_k": 1,
      "kalshi_event": "PRESPARTYAR-24",
      "pm_event": "arkansas-presidential-election-winner"
    },
    {
      "lat": 19.43,
      "lng": -99.13,
      "label": "2024 \u2014 Mexico \u2014 President",
      "elections": 1,
      "markets": 4,
      "volume": 2082859.16,
      "search_query": "President Mexico 2024",
      "has_pm": 1,
      "has_k": 0,
      "pm_event": "mexican-presidential-election-who-will-win"
    },
    {
      "lat": 53.93,
      "lng": -116.58,
      "label": "2024 \u2014 Alberta \u2014 Parliament (+1 more)",
      "elections": 2,
      "markets": 8,
      "volume": 1961068.49,
      "search_query": "Parliament Alberta Canada 2024",
      "has_pm": 1,
      "has_k": 0,
      "pm_event": "which-party-wins-most-seats-in-alberta"
    },
    {
      "lat": 37.77,
      "lng": -122.42,
      "label": "2024 \u2014 San Francisco \u2014 Mayor",
      "elections": 1,
      "markets": 10,
      "volume": 1711909.86,
      "search_query": "Mayor San Francisco United States 2024",
      "has_pm": 1,
      "has_k": 1,
      "kalshi_event": "KXMAYORSF-24",
      "pm_event": "who-will-win-san-francisco-mayoral-election"
    },
    {
      "lat": -4.68,
      "lng": 55.47,
      "label": "2025 \u2014 Seychelles \u2014 President",
      "elections": 1,
      "markets": 10,
      "volume": 1597870.33,
      "search_query": "President Seychelles 2025",
      "has_pm": 1,
      "has_k": 0,
      "pm_event": "seychelles-presidential-election"
    },
    {
      "lat": 47.55,
      "lng": -101.0,
      "label": "2024 \u2014 North Dakota \u2014 President (+2 more)",
      "elections": 3,
      "markets": 16,
      "volume": 1521997.29,
      "search_query": "President North Dakota United States 2024",
      "has_pm": 1,
      "has_k": 1,
      "kalshi_event": "PRESPARTYND-24",
      "pm_event": "north-dakota-presidential-election-winner"
    },
    {
      "lat": 47.75,
      "lng": -120.74,
      "label": "2024 \u2014 Washington \u2014 President (+4 more)",
      "elections": 5,
      "markets": 19,
      "volume": 1493436.41,
      "search_query": "President Washington United States 2024",
      "has_pm": 1,
      "has_k": 1,
      "kalshi_event": "PRESPARTYDC-24",
      "pm_event": "washington-presidential-election-winner"
    },
    {
      "lat": 47.01,
      "lng": 28.86,
      "label": "2024 \u2014 Moldova \u2014 President (+1 more)",
      "elections": 2,
      "markets": 12,
      "volume": 1435760.65,
      "search_query": "President Moldova 2024",
      "has_pm": 1,
      "has_k": 0,
      "pm_event": "moldova-presidential-election-winner"
    },
    {
      "lat": 62.45,
      "lng": -114.37,
      "label": "2024 \u2014 Northwest Territories \u2014 Parliament",
      "elections": 1,
      "markets": 4,
      "volume": 1396029.77,
      "search_query": "Parliament Northwest Territories Canada 2024",
      "has_pm": 1,
      "has_k": 0,
      "pm_event": "which-party-wins-northwest-territories"
    },
    {
      "lat": 39.01,
      "lng": -98.48,
      "label": "2024 \u2014 Kansas \u2014 President (+1 more)",
      "elections": 2,
      "markets": 6,
      "volume": 1350029.01,
      "search_query": "President Kansas United States 2024",
      "has_pm": 1,
      "has_k": 1,
      "kalshi_event": "PRESPARTYKS-24",
      "pm_event": "kansas-presidential-election-winner"
    },
    {
      "lat": 43.8,
      "lng": -120.55,
      "label": "2024 \u2014 Oregon \u2014 President (+1 more)",
      "elections": 2,
      "markets": 6,
      "volume": 1190783.12,
      "search_query": "President Oregon United States 2024",
      "has_pm": 1,
      "has_k": 1,
      "kalshi_event": "PRESPARTYOR-24",
      "pm_event": "oregon-presidential-election-winner"
    },
    {
      "lat": 38.91,
      "lng": -75.53,
      "label": "2024 \u2014 Delaware \u2014 President (+3 more)",
      "elections": 4,
      "markets": 22,
      "volume": 1183315.8,
      "search_query": "President Delaware United States 2024",
      "has_pm": 1,
      "has_k": 1,
      "kalshi_event": "PRESPARTYDE-24",
      "pm_event": "delaware-presidential-election-winner-2024"
    },
    {
      "lat": 3.87,
      "lng": 11.52,
      "label": "2024 \u2014 Cameroon \u2014 President (+1 more)",
      "elections": 2,
      "markets": 21,
      "volume": 1180955.8,
      "search_query": "President Cameroon 2024",
      "has_pm": 1,
      "has_k": 1,
      "kalshi_event": "KXPRESCAMEROON-25OCT12",
      "pm_event": "cameroon-presidential-election"
    },
    {
      "lat": 48.86,
      "lng": 2.35,
      "label": "2022 \u2014 France \u2014 President (+3 more)",
      "elections": 4,
      "markets": 15,
      "volume": 1106881.06,
      "search_query": "President France 2022",
      "has_pm": 1,
      "has_k": 0,
      "pm_event": "how-many-seats-will-national-rally-coalition-win-in-french-election"
    },
    {
      "lat": -34.88,
      "lng": -56.18,
      "label": "2024 \u2014 Uruguay \u2014 President",
      "elections": 1,
      "markets": 5,
      "volume": 1043470.04,
      "search_query": "President Uruguay 2024",
      "has_pm": 1,
      "has_k": 0,
      "pm_event": "uruguay-presidential-election-winner"
    },
    {
      "lat": 41.15,
      "lng": 20.17,
      "label": "2025 \u2014 Albania \u2014 Prime Minister (+1 more)",
      "elections": 2,
      "markets": 14,
      "volume": 1013006.6,
      "search_query": "Prime Minister Albania 2025",
      "has_pm": 1,
      "has_k": 1,
      "kalshi_event": "KXALBANIAPARTY",
      "pm_event": "next-prime-minister-of-albania"
    },
    {
      "lat": 40.27,
      "lng": -86.13,
      "label": "2024 \u2014 Indiana \u2014 President (+2 more)",
      "elections": 3,
      "markets": 13,
      "volume": 934554.77,
      "search_query": "President Indiana United States 2024",
      "has_pm": 1,
      "has_k": 1,
      "kalshi_event": "GOVPARTYIN-24",
      "pm_event": "indiana-presidential-election-winner"
    },
    {
      "lat": 41.6,
      "lng": -72.76,
      "label": "2024 \u2014 Connecticut \u2014 President (+1 more)",
      "elections": 2,
      "markets": 9,
      "volume": 923827.72,
      "search_query": "President Connecticut United States 2024",
      "has_pm": 1,
      "has_k": 1,
      "kalshi_event": "PRESPARTYCT-24",
      "pm_event": "connecticut-presidential-election-winner"
    },
    {
      "lat": 32.35,
      "lng": -89.4,
      "label": "2024 \u2014 Mississippi \u2014 President (+3 more)",
      "elections": 4,
      "markets": 14,
      "volume": 835118.35,
      "search_query": "President Mississippi United States 2024",
      "has_pm": 1,
      "has_k": 1,
      "kalshi_event": "PRESPARTYMS-24",
      "pm_event": "mississippi-presidential-election-winner"
    },
    {
      "lat": 59.91,
      "lng": 10.75,
      "label": "2024 \u2014 Norway \u2014 Parliament (+2 more)",
      "elections": 3,
      "markets": 31,
      "volume": 822908.78,
      "search_query": "Parliament Norway 2024",
      "has_pm": 1,
      "has_k": 1,
      "kalshi_event": "KXNORWAYPARTY-25",
      "pm_event": "norwegian-progress-party-frp-ou-22"
    },
    {
      "lat": 39.32,
      "lng": -111.09,
      "label": "2024 \u2014 Utah \u2014 President (+6 more)",
      "elections": 7,
      "markets": 22,
      "volume": 815630.62,
      "search_query": "President Utah United States 2024",
      "has_pm": 1,
      "has_k": 1,
      "kalshi_event": "PRESPARTYUT-24",
      "pm_event": "utah-presidential-election-winner"
    },
    {
      "lat": 63.75,
      "lng": -68.52,
      "label": "2024 \u2014 Nunavut \u2014 Parliament",
      "elections": 1,
      "markets": 4,
      "volume": 802100.77,
      "search_query": "Parliament Nunavut Canada 2024",
      "has_pm": 1,
      "has_k": 0,
      "pm_event": "which-party-wins-nunavut"
    },
    {
      "lat": 32.36,
      "lng": -86.3,
      "label": "2024 \u2014 Alabama \u2014 President (+2 more)",
      "elections": 3,
      "markets": 8,
      "volume": 796802.68,
      "search_query": "President Alabama United States 2024",
      "has_pm": 1,
      "has_k": 1,
      "kalshi_event": "PRESPARTYAL-24",
      "pm_event": "alabama-presidential-election-winner"
    },
    {
      "lat": 14.6,
      "lng": 120.98,
      "label": "2025 \u2014 Philippines \u2014 Parliament (+1 more)",
      "elections": 2,
      "markets": 9,
      "volume": 744823.47,
      "search_query": "Parliament Philippines 2025",
      "has_pm": 1,
      "has_k": 0,
      "pm_event": "which-party-wins-most-seats-in-philippines-election"
    },
    {
      "lat": 1.35,
      "lng": 103.82,
      "label": "2025 \u2014 Singapore \u2014 Parliament (+1 more)",
      "elections": 2,
      "markets": 7,
      "volume": 741720.67,
      "search_query": "Parliament Singapore 2025",
      "has_pm": 1,
      "has_k": 0,
      "pm_event": "singapore-parliamentary-election-winner"
    },
    {
      "lat": 60.17,
      "lng": 24.94,
      "label": "2024 \u2014 Finland \u2014 President",
      "elections": 1,
      "markets": 11,
      "volume": 697969.29,
      "search_query": "President Finland 2024",
      "has_pm": 1,
      "has_k": 0,
      "pm_event": "finland-presidential-election-who-will-win"
    },
    {
      "lat": 43.97,
      "lng": -99.9,
      "label": "2024 \u2014 South Dakota \u2014 President",
      "elections": 1,
      "markets": 5,
      "volume": 682092.98,
      "search_query": "President South Dakota United States 2024",
      "has_pm": 1,
      "has_k": 1,
      "kalshi_event": "PRESPARTYSD-24",
      "pm_event": "south-dakota-presidential-election-winner"
    },
    {
      "lat": 19.08,
      "lng": 72.88,
      "label": "2024 \u2014 India \u2014 Parliament (+1 more)",
      "elections": 2,
      "markets": 11,
      "volume": 678656.82,
      "search_query": "Parliament India 2024",
      "has_pm": 1,
      "has_k": 0,
      "pm_event": "india-election-will-bjp-win-a-majority-of-seats"
    },
    {
      "lat": -3.72,
      "lng": -38.54,
      "label": "2024 \u2014 Fortaleza \u2014 Mayor",
      "elections": 1,
      "markets": 3,
      "volume": 670165.7,
      "search_query": "Mayor Fortaleza Brazil 2024",
      "has_pm": 1,
      "has_k": 0,
      "pm_event": "fortaleza-mayoral-election-2024"
    },
    {
      "lat": 6.8,
      "lng": -58.16,
      "label": "2025 \u2014 Guyana \u2014 President (+1 more)",
      "elections": 2,
      "markets": 13,
      "volume": 592186.44,
      "search_query": "President Guyana 2025",
      "has_pm": 1,
      "has_k": 1,
      "kalshi_event": "KXGUYANAPRES-25",
      "pm_event": "guyana-presidential-election"
    },
    {
      "lat": 6.85,
      "lng": -5.3,
      "label": "2025 \u2014 Ivory Coast \u2014 President",
      "elections": 1,
      "markets": 12,
      "volume": 578726.62,
      "search_query": "President Ivory Coast 2025",
      "has_pm": 1,
      "has_k": 1,
      "kalshi_event": "KXELECTIONICOAST-26",
      "pm_event": "ivory-coast-presidential-election"
    },
    {
      "lat": 50.45,
      "lng": 30.52,
      "label": "2022 \u2014 Ukraine \u2014 President",
      "elections": 1,
      "markets": 2,
      "volume": 532985.64,
      "search_query": "President Ukraine 2022",
      "has_pm": 1,
      "has_k": 0
    },
    {
      "lat": 41.58,
      "lng": -71.48,
      "label": "2024 \u2014 Rhode Island \u2014 President (+1 more)",
      "elections": 2,
      "markets": 9,
      "volume": 525181.12,
      "search_query": "President Rhode Island United States 2024",
      "has_pm": 1,
      "has_k": 1,
      "kalshi_event": "PRESPARTYRI-24",
      "pm_event": "rhode-island-presidential-election-winner"
    },
    {
      "lat": 54.69,
      "lng": 25.28,
      "label": "2024 \u2014 Lithuania \u2014 President (+1 more)",
      "elections": 2,
      "markets": 12,
      "volume": 513161.61,
      "search_query": "President Lithuania 2024",
      "has_pm": 1,
      "has_k": 0,
      "pm_event": "lithuanian-presidential-election-winner"
    },
    {
      "lat": -30.03,
      "lng": -51.23,
      "label": "2024 \u2014 Porto Alegre \u2014 Mayor",
      "elections": 1,
      "markets": 5,
      "volume": 457239.5,
      "search_query": "Mayor Porto Alegre Brazil 2024",
      "has_pm": 1,
      "has_k": 0,
      "pm_event": "porto-alegre-mayoral-election-2024"
    },
    {
      "lat": 40.73,
      "lng": -74.04,
      "label": "2025 \u2014 Jersey City \u2014 Mayor",
      "elections": 1,
      "markets": 12,
      "volume": 447332.11,
      "search_query": "Mayor Jersey City United States 2025",
      "has_pm": 1,
      "has_k": 1,
      "kalshi_event": "KXMAYORJERSEY-25",
      "pm_event": "jersey-city-mayoral-election"
    },
    {
      "lat": 47.14,
      "lng": 9.52,
      "label": "2024 \u2014 Liechtenstein \u2014 Parliament",
      "elections": 1,
      "markets": 4,
      "volume": 442809.8,
      "search_query": "Parliament Liechtenstein 2024",
      "has_pm": 1,
      "has_k": 0,
      "pm_event": "liechtenstein-parliamentary-election-winner"
    },
    {
      "lat": -13.97,
      "lng": 33.79,
      "label": "2025 \u2014 Malawi \u2014 President (+2 more)",
      "elections": 3,
      "markets": 12,
      "volume": 437290.52,
      "search_query": "President Malawi 2025",
      "has_pm": 1,
      "has_k": 1,
      "kalshi_event": "KXMALAWI1ROUND-26",
      "pm_event": "malawi-presidential-election-981"
    },
    {
      "lat": 35.47,
      "lng": -97.52,
      "label": "2024 \u2014 Oklahoma \u2014 President (+2 more)",
      "elections": 3,
      "markets": 8,
      "volume": 435973.13,
      "search_query": "President Oklahoma United States 2024",
      "has_pm": 1,
      "has_k": 1,
      "kalshi_event": "PRESPARTYOK-24",
      "pm_event": "oklahoma-presidential-election-winner"
    },
    {
      "lat": 38.6,
      "lng": -80.45,
      "label": "2024 \u2014 West Virginia \u2014 Governor (+1 more)",
      "elections": 2,
      "markets": 8,
      "volume": 398595.57,
      "search_query": "Governor West Virginia United States 2024",
      "has_pm": 1,
      "has_k": 1,
      "kalshi_event": "GOVPARTYWV-24",
      "pm_event": "west-virginia-governor-election-winner"
    },
    {
      "lat": 5.56,
      "lng": -0.19,
      "label": "2024 \u2014 Ghana \u2014 President (+1 more)",
      "elections": 2,
      "markets": 14,
      "volume": 394363.81,
      "search_query": "President Ghana 2024",
      "has_pm": 1,
      "has_k": 1,
      "kalshi_event": "KXPRESGHANA",
      "pm_event": "ghana-presidential-election"
    },
    {
      "lat": 37.8,
      "lng": -122.27,
      "label": "2025 \u2014 Oakland \u2014 Mayor",
      "elections": 1,
      "markets": 12,
      "volume": 378770.76,
      "search_query": "Mayor Oakland United States 2025",
      "has_pm": 1,
      "has_k": 1,
      "kalshi_event": "KXMAYOROAKLAND-25",
      "pm_event": "oakland-mayoral-special-election"
    },
    {
      "lat": 47.57,
      "lng": -52.71,
      "label": "2024 \u2014 Newfoundland and Labrador \u2014 Parliament",
      "elections": 1,
      "markets": 4,
      "volume": 345960.1,
      "search_query": "Parliament Newfoundland and Labrador Canada 2024",
      "has_pm": 1,
      "has_k": 0,
      "pm_event": "which-party-wins-most-seats-in-newfoundland-and-labrador"
    },
    {
      "lat": 30.98,
      "lng": -91.96,
      "label": "2024 \u2014 Louisiana \u2014 President",
      "elections": 1,
      "markets": 5,
      "volume": 335553.49,
      "search_query": "President Louisiana United States 2024",
      "has_pm": 1,
      "has_k": 1,
      "kalshi_event": "PRESPARTYLA-24",
      "pm_event": "louisiana-presidential-election-winner"
    },
    {
      "lat": 41.72,
      "lng": 44.79,
      "label": "2024 \u2014 Georgia \u2014 Parliament",
      "elections": 1,
      "markets": 1,
      "volume": 332279.12,
      "search_query": "Parliament Georgia 2024",
      "has_pm": 1,
      "has_k": 0,
      "pm_event": "will-gd-win-a-majority-in-georgia-parliamentary-election"
    },
    {
      "lat": 44.07,
      "lng": -114.74,
      "label": "2024 \u2014 Idaho \u2014 President",
      "elections": 1,
      "markets": 6,
      "volume": 315885.79,
      "search_query": "President Idaho United States 2024",
      "has_pm": 1,
      "has_k": 1,
      "kalshi_event": "PRESPARTYID-24",
      "pm_event": "idaho-presidential-election-winner"
    },
    {
      "lat": 52.41,
      "lng": 13.07,
      "label": "2024 \u2014 Brandenburg \u2014 Regional",
      "elections": 1,
      "markets": 5,
      "volume": 311461.06,
      "search_query": "Regional Brandenburg Germany 2024",
      "has_pm": 1,
      "has_k": 0,
      "pm_event": "who-wins-most-votes-in-brandenburg-election"
    },
    {
      "lat": 18.11,
      "lng": -76.79,
      "label": "2025 \u2014 Jamaica \u2014 Prime Minister (+2 more)",
      "elections": 3,
      "markets": 16,
      "volume": 304216.41,
      "search_query": "Prime Minister Jamaica 2025",
      "has_pm": 1,
      "has_k": 1,
      "kalshi_event": "KXJAMAICANHOR-26",
      "pm_event": "next-prime-minister-of-jamaica"
    },
    {
      "lat": 48.21,
      "lng": 16.37,
      "label": "2024 \u2014 Austria \u2014 Parliament",
      "elections": 1,
      "markets": 6,
      "volume": 299892.35,
      "search_query": "Parliament Austria 2024",
      "has_pm": 1,
      "has_k": 0,
      "pm_event": "which-party-wins-the-most-seats-austrian-legislative-election"
    },
    {
      "lat": 42.33,
      "lng": -83.05,
      "label": "2025 \u2014 Detroit \u2014 Mayor",
      "elections": 1,
      "markets": 22,
      "volume": 293409.18,
      "search_query": "Mayor Detroit United States 2025",
      "has_pm": 1,
      "has_k": 1,
      "kalshi_event": "KXMAYORDETROIT-25",
      "pm_event": "detroit-mayoral-election"
    },
    {
      "lat": 9.93,
      "lng": -84.08,
      "label": "2024 \u2014 Costa Rica \u2014 President",
      "elections": 1,
      "markets": 1,
      "volume": 280492.63,
      "search_query": "President Costa Rica 2024",
      "has_pm": 1,
      "has_k": 0,
      "pm_event": "will-any-presidential-candidate-win-outright-in-the-first-round-of-costa-ricas-presidential-election"
    },
    {
      "lat": -6.21,
      "lng": 106.85,
      "label": "2024 \u2014 Indonesia \u2014 President",
      "elections": 1,
      "markets": 1,
      "volume": 270567.59,
      "search_query": "President Indonesia 2024",
      "has_pm": 1,
      "has_k": 0,
      "pm_event": "indonesia-election-prabowo-subianto-wins"
    },
    {
      "lat": -33.8,
      "lng": 151.1,
      "label": "2025 \u2014 Bennelong \u2014 Parliament",
      "elections": 1,
      "markets": 16,
      "volume": 266506.0,
      "search_query": "Parliament Bennelong Australia 2025",
      "has_pm": 1,
      "has_k": 1,
      "kalshi_event": "KXAUSSEATBENNELONG-25",
      "pm_event": "australia-election-seat-of-bennelong"
    },
    {
      "lat": 35.69,
      "lng": 51.39,
      "label": "2024 \u2014 Iran \u2014 President",
      "elections": 1,
      "markets": 14,
      "volume": 246854.93,
      "search_query": "President Iran 2024",
      "has_pm": 1,
      "has_k": 0,
      "pm_event": "next-president-of-iran"
    },
    {
      "lat": -26.2,
      "lng": 28.04,
      "label": "2024 \u2014 South Africa \u2014 President (+1 more)",
      "elections": 2,
      "markets": 9,
      "volume": 231364.24,
      "search_query": "President South Africa 2024",
      "has_pm": 1,
      "has_k": 0,
      "pm_event": "south-africa-election-who-will-be-next-president"
    },
    {
      "lat": 42.36,
      "lng": -71.06,
      "label": "2025 \u2014 Boston \u2014 Mayor",
      "elections": 1,
      "markets": 13,
      "volume": 223469.01,
      "search_query": "Mayor Boston United States 2025",
      "has_pm": 1,
      "has_k": 1,
      "kalshi_event": "KXMAYORBOSTON-25",
      "pm_event": "boston-mayoral-election"
    },
    {
      "lat": 60.72,
      "lng": -135.05,
      "label": "2024 \u2014 Yukon \u2014 Parliament",
      "elections": 1,
      "markets": 4,
      "volume": 200487.23,
      "search_query": "Parliament Yukon Canada 2024",
      "has_pm": 1,
      "has_k": 0,
      "pm_event": "which-party-wins-yukon"
    },
    {
      "lat": 41.65,
      "lng": -0.88,
      "label": "2026 \u2014 Aragon \u2014 Regional",
      "elections": 1,
      "markets": 10,
      "volume": 199731.03,
      "search_query": "Regional Aragon Spain 2026",
      "has_pm": 1,
      "has_k": 0,
      "pm_event": "aragon-regional-election-winner-177"
    },
    {
      "lat": 42.66,
      "lng": 21.17,
      "label": "2024 \u2014 Kosovo \u2014 Prime Minister (+1 more)",
      "elections": 2,
      "markets": 6,
      "volume": 199127.21,
      "search_query": "Prime Minister Kosovo 2024",
      "has_pm": 1,
      "has_k": 0,
      "pm_event": "next-prime-minister-of-kosovo"
    },
    {
      "lat": 13.69,
      "lng": -89.22,
      "label": "2024 \u2014 El Salvador \u2014 President",
      "elections": 1,
      "markets": 5,
      "volume": 194856.23,
      "search_query": "President El Salvador 2024",
      "has_pm": 1,
      "has_k": 0,
      "pm_event": "el-salvador-presidential-election-winner"
    },
    {
      "lat": 35.08,
      "lng": -106.65,
      "label": "2025 \u2014 Albuquerque \u2014 Mayor",
      "elections": 1,
      "markets": 14,
      "volume": 193878.1,
      "search_query": "Mayor Albuquerque United States 2025",
      "has_pm": 1,
      "has_k": 1,
      "kalshi_event": "KXMAYORALBUQ-25",
      "pm_event": "albuquerque-mayoral-election"
    },
    {
      "lat": 6.93,
      "lng": 79.85,
      "label": "2024 \u2014 Sri Lanka \u2014 President (+1 more)",
      "elections": 2,
      "markets": 9,
      "volume": 189819.83,
      "search_query": "President Sri Lanka 2024",
      "has_pm": 1,
      "has_k": 0,
      "pm_event": "sri-lanka-presidential-election-winner"
    },
    {
      "lat": -3.38,
      "lng": 29.36,
      "label": "2025 \u2014 Burundi \u2014 Parliament",
      "elections": 1,
      "markets": 4,
      "volume": 162985.53,
      "search_query": "Parliament Burundi 2025",
      "has_pm": 1,
      "has_k": 0,
      "pm_event": "burundi-parliamentary-election-winner"
    },
    {
      "lat": -13.83,
      "lng": -171.76,
      "label": "2025 \u2014 Samoa \u2014 Parliament",
      "elections": 1,
      "markets": 6,
      "volume": 148399.0,
      "search_query": "Parliament Samoa 2025",
      "has_pm": 1,
      "has_k": 0,
      "pm_event": "samoa-legislative-assembly-election-winner"
    },
    {
      "lat": -6.79,
      "lng": 39.28,
      "label": "2025 \u2014 Tanzania \u2014 President",
      "elections": 1,
      "markets": 3,
      "volume": 148075.78,
      "search_query": "President Tanzania 2025",
      "has_pm": 1,
      "has_k": 0,
      "pm_event": "tanzania-presidential-election"
    },
    {
      "lat": -12.05,
      "lng": -77.04,
      "label": "2021 \u2014 Peru \u2014 President",
      "elections": 1,
      "markets": 1,
      "volume": 141910.05,
      "search_query": "President Peru 2021",
      "has_pm": 1,
      "has_k": 0
    },
    {
      "lat": -27.47,
      "lng": 153.03,
      "label": "2025 \u2014 Brisbane \u2014 Parliament",
      "elections": 1,
      "markets": 15,
      "volume": 140196.56,
      "search_query": "Parliament Brisbane Australia 2025",
      "has_pm": 1,
      "has_k": 1,
      "kalshi_event": "KXAUSSEATBRISBANE-25",
      "pm_event": "australia-election-seat-of-brisbane"
    },
    {
      "lat": 14.63,
      "lng": -90.51,
      "label": "2023 \u2014 Guatemala \u2014 President",
      "elections": 1,
      "markets": 4,
      "volume": 129194.18,
      "search_query": "President Guatemala 2023",
      "has_pm": 1,
      "has_k": 0
    },
    {
      "lat": 4.71,
      "lng": -74.07,
      "label": "2022 \u2014 Colombia \u2014 President",
      "elections": 1,
      "markets": 4,
      "volume": 120465.43,
      "search_query": "President Colombia 2022",
      "has_pm": 1,
      "has_k": 0
    },
    {
      "lat": 29.95,
      "lng": -90.07,
      "label": "2025 \u2014 New Orleans \u2014 Mayor",
      "elections": 1,
      "markets": 7,
      "volume": 115638.53,
      "search_query": "Mayor New Orleans United States 2025",
      "has_pm": 1,
      "has_k": 1,
      "kalshi_event": "KXMAYORNOLA-25",
      "pm_event": "new-orleans-mayoral-election"
    },
    {
      "lat": 8.98,
      "lng": -79.52,
      "label": "2024 \u2014 Panama \u2014 President",
      "elections": 1,
      "markets": 8,
      "volume": 114658.92,
      "search_query": "President Panama 2024",
      "has_pm": 1,
      "has_k": 0,
      "pm_event": "panama-presidential-election-winner"
    },
    {
      "lat": 23.81,
      "lng": 90.41,
      "label": "2024 \u2014 Bangladesh \u2014 Prime Minister",
      "elections": 1,
      "markets": 2,
      "volume": 112834.71,
      "search_query": "Prime Minister Bangladesh 2024",
      "has_pm": 1,
      "has_k": 0,
      "pm_event": "prime-minister-of-bangladesh-after-parliamentary-election"
    },
    {
      "lat": 42.89,
      "lng": -78.88,
      "label": "2021 \u2014 Buffalo \u2014 Mayor",
      "elections": 1,
      "markets": 1,
      "volume": 111593.47,
      "search_query": "Mayor Buffalo United States 2021",
      "has_pm": 1,
      "has_k": 0
    },
    {
      "lat": 25.76,
      "lng": -80.19,
      "label": "2025 \u2014 Miami \u2014 Mayor",
      "elections": 1,
      "markets": 6,
      "volume": 106919.08,
      "search_query": "Mayor Miami United States 2025",
      "has_pm": 1,
      "has_k": 1,
      "kalshi_event": "KXMAYORMIA-25",
      "pm_event": "miami-mayoral-election-568"
    },
    {
      "lat": 48.15,
      "lng": 17.11,
      "label": "2024 \u2014 Slovakia \u2014 President (+1 more)",
      "elections": 2,
      "markets": 7,
      "volume": 105224.68,
      "search_query": "President Slovakia 2024",
      "has_pm": 1,
      "has_k": 0,
      "pm_event": "slovakia-presidential-election-winner"
    },
    {
      "lat": 43.65,
      "lng": -79.38,
      "label": "2024 \u2014 Ontario \u2014 Parliament (+3 more)",
      "elections": 4,
      "markets": 8,
      "volume": 92014.55,
      "search_query": "Parliament Ontario Canada 2024",
      "has_pm": 1,
      "has_k": 1,
      "kalshi_event": "KXONTPARTY-25",
      "pm_event": "ontario-parliamentary-election-2nd-place"
    },
    {
      "lat": 41.9,
      "lng": 12.5,
      "label": "2025 \u2014 Calabria \u2014 Regional (+4 more)",
      "elections": 5,
      "markets": 13,
      "volume": 85188.9,
      "search_query": "Regional Calabria Italy 2025",
      "has_pm": 1,
      "has_k": 1,
      "kalshi_event": "KXCALABRIAPRES-25OCT06",
      "pm_event": "calabria-presidential-election"
    },
    {
      "lat": 37.98,
      "lng": 23.73,
      "label": "2023 \u2014 Greece \u2014 Parliament (+1 more)",
      "elections": 2,
      "markets": 4,
      "volume": 82339.58,
      "search_query": "Parliament Greece 2023",
      "has_pm": 1,
      "has_k": 1,
      "kalshi_event": "KXGREECEPRES-25"
    },
    {
      "lat": 14.72,
      "lng": -17.47,
      "label": "2024 \u2014 Senegal \u2014 President",
      "elections": 1,
      "markets": 8,
      "volume": 77419.6,
      "search_query": "President Senegal 2024",
      "has_pm": 1,
      "has_k": 0,
      "pm_event": "senegal-presidential-election-winner"
    },
    {
      "lat": 52.13,
      "lng": -106.67,
      "label": "2024 \u2014 Saskatchewan \u2014 Regional",
      "elections": 1,
      "markets": 3,
      "volume": 76927.07,
      "search_query": "Regional Saskatchewan Canada 2024",
      "has_pm": 1,
      "has_k": 0,
      "pm_event": "which-party-wins-most-seats-in-in-saskatchewan-election"
    },
    {
      "lat": -25.43,
      "lng": -49.27,
      "label": "2024 \u2014 Curitiba \u2014 Mayor",
      "elections": 1,
      "markets": 3,
      "volume": 64499.25,
      "search_query": "Mayor Curitiba Brazil 2024",
      "has_pm": 1,
      "has_k": 0,
      "pm_event": "curitiba-mayoral-election-2024"
    },