{
  "live": [
    {
      "lat": 38.9,
      "lng": -77.04,
      "label": "2024 \u2014 United States \u2014 President (+12 more)",
      "elections": 13,
      "markets": 1246,
      "volume": 6357201933.55,
      "search_query": "President United States 2024",
      "has_pm": 1,
      "has_k": 1,
      "kalshi_event": "KXECDJT270",
      "pm_event": "democratic-vp-nominee-2028"
    },
    {
      "lat": 31.97,
      "lng": -99.9,
      "label": "2026 \u2014 Texas \u2014 Senate (+50 more)",
      "elections": 51,
      "markets": 668,
      "volume": 33260914.78,
      "search_query": "Senate Texas United States 2026",
      "has_pm": 1,
      "has_k": 1,
      "kalshi_event": "KXSENATETXR-26"
    },
    {
      "lat": -23.55,
      "lng": -46.64,
      "label": "2026 \u2014 Brazil \u2014 President",
      "elections": 1,
      "markets": 61,
      "volume": 25785066.78,
      "search_query": "President Brazil 2026",
      "has_pm": 1,
      "has_k": 1,
      "kalshi_event": "KXBRPRES-26"
    },
    {
      "lat": 4.71,
      "lng": -74.07,
      "label": "2026 \u2014 Colombia \u2014 Parliament (+2 more)",
      "elections": 3,
      "markets": 204,
      "volume": 16781685.0,
      "search_query": "Parliament Colombia 2026",
      "has_pm": 1,
      "has_k": 1,
      "kalshi_event": "KXCOLOMBIAPARLI-26MAR08"
    },
    {
      "lat": 13.76,
      "lng": 100.5,
      "label": "2026 \u2014 Thailand \u2014 Parliament (+1 more)",
      "elections": 2,
      "markets": 58,
      "volume": 15964187.38,
      "search_query": "Parliament Thailand 2026",
      "has_pm": 1,
      "has_k": 1,
      "kalshi_event": "KXTHAILANDHOUSE-26FEB08"
    },
    {
      "lat": 48.86,
      "lng": 2.35,
      "label": "2027 \u2014 France \u2014 President (+4 more)",
      "elections": 5,
      "markets": 230,
      "volume": 11687156.24,
      "search_query": "President France 2027",
      "has_pm": 1,
      "has_k": 1,
      "kalshi_event": "KXFRENCHPRES-27"
    },
    {
      "lat": 46.06,
      "lng": 14.51,
      "label": "2026 \u2014 Slovenia \u2014 Parliament",
      "elections": 1,
      "markets": 103,
      "volume": 11107630.6,
      "search_query": "Parliament Slovenia 2026",
      "has_pm": 1,
      "has_k": 1,
      "kalshi_event": "KXSLOVENIAPARLI-26MAR29"
    },
    {
      "lat": 36.78,
      "lng": -119.42,
      "label": "2026 \u2014 California \u2014 Governor (+57 more)",
      "elections": 58,
      "markets": 757,
      "volume": 7422129.25,
      "search_query": "Governor California United States 2026",
      "has_pm": 1,
      "has_k": 1,
      "kalshi_event": "KXGOVCA-26",
      "pm_event": "ca-14-special-election-winner"
    },
    {
      "lat": 40.06,
      "lng": -74.41,
      "label": "2024 \u2014 NJ-11 \u2014 House (+18 more)",
      "elections": 19,
      "markets": 229,
      "volume": 6645530.39,
      "search_query": "House NJ-11 United States 2024",
      "has_pm": 1,
      "has_k": 1,
      "kalshi_event": "SENATENJ-26"
    },
    {
      "lat": 37.57,
      "lng": 126.98,
      "label": "2026 \u2014 Seoul \u2014 Mayor (+2 more)",
      "elections": 3,
      "markets": 109,
      "volume": 4534074.91,
      "search_query": "Mayor Seoul South Korea 2026",
      "has_pm": 1,
      "has_k": 1,
      "kalshi_event": "KXSEOULMAYOR-26JUN03"
    },
    {
      "lat": 45.37,
      "lng": -69.6,
      "label": "2026 \u2014 Maine \u2014 Senate (+6 more)",
      "elections": 7,
      "markets": 218,
      "volume": 4136066.58,
      "search_query": "Senate Maine United States 2026",
      "has_pm": 1,
      "has_k": 1,
      "kalshi_event": "KXSENATEMED-26"
    },
    {
      "lat": 27.99,
      "lng": -81.76,
      "label": "2026 \u2014 Florida \u2014 Governor (+36 more)",
      "elections": 37,
      "markets": 466,
      "volume": 4046089.95,
      "search_query": "Governor Florida United States 2026",
      "has_pm": 1,
      "has_k": 1,
      "kalshi_event": "KXGOVFLNOMR-26",
      "pm_event": "fl-06-republican-primary-winner"
    },
    {
      "lat": 45.76,
      "lng": 4.84,
      "label": "2026 \u2014 Lyon \u2014 Mayor",
      "elections": 1,
      "markets": 23,
      "volume": 2829452.57,
      "search_query": "Mayor Lyon France 2026",
      "has_pm": 1,
      "has_k": 1,
      "kalshi_event": "KXLYONMAYOR-26MAR15"
    },
    {
      "lat": 49.99,
      "lng": 8.25,
      "label": "2026 \u2014 Rhineland-Palatinate \u2014 Parliament",
      "elections": 1,
      "markets": 48,
      "volume": 2398620.36,
      "search_query": "Parliament Rhineland-Palatinate Germany 2026",
      "has_pm": 1,
      "has_k": 0
    },
    {
      "lat": 55.68,
      "lng": 12.57,
      "label": "2026 \u2014 Denmark \u2014 Parliament (+1 more)",
      "elections": 2,
      "markets": 192,
      "volume": 2195594.74,
      "search_query": "Parliament Denmark 2026",
      "has_pm": 1,
      "has_k": 1,
      "kalshi_event": "KXDENMARKPARLI-26"
    },
    {
      "lat": 40.63,
      "lng": -89.4,
      "label": "2024 \u2014 Illinois \u2014 Senate (+28 more)",
      "elections": 29,
      "markets": 442,
      "volume": 2188211.42,
      "search_query": "Senate Illinois United States 2024",
      "has_pm": 1,
      "has_k": 1,
      "kalshi_event": "KXSENATEILD-26"
    },
    {
      "lat": -16.5,
      "lng": -68.15,
      "label": "2026 \u2014 La Paz \u2014 Mayor (+5 more)",
      "elections": 6,
      "markets": 99,
      "volume": 1991331.45,
      "search_query": "Mayor La Paz Bolivia 2026",
      "has_pm": 1,
      "has_k": 0
    },
    {
      "lat": 46.73,
      "lng": -94.69,
      "label": "2024 \u2014 MN-5 \u2014 House (+14 more)",
      "elections": 15,
      "markets": 307,
      "volume": 1865414.27,
      "search_query": "House MN-5 United States 2024",
      "has_pm": 1,
      "has_k": 1,
      "kalshi_event": "KXGOVMNNOMD-26"
    },
    {
      "lat": -12.05,
      "lng": -77.04,
      "label": "2026 \u2014 Peru \u2014 President (+1 more)",
      "elections": 2,
      "markets": 176,
      "volume": 1794224.69,
      "search_query": "President Peru 2026",
      "has_pm": 1,
      "has_k": 1,
      "kalshi_event": "KXPERUPRES-26"
    },
    {
      "lat": 41.49,
      "lng": -99.9,
      "label": "2026 \u2014 NE-2 \u2014 House (+9 more)",
      "elections": 10,
      "markets": 167,
      "volume": 1738481.83,
      "search_query": "House NE-2 United States 2026",
      "has_pm": 1,
      "has_k": 1,
      "kalshi_event": "HOUSENE2-26",
      "pm_event": "nebraska-democratic-senate-primary-winner"
    },
    {
      "lat": 51.51,
      "lng": -0.13,
      "label": "2026 \u2014 United Kingdom \u2014 Prime Minister (+9 more)",
      "elections": 10,
      "markets": 265,
      "volume": 1449239.34,
      "search_query": "Prime Minister United Kingdom 2026",
      "has_pm": 1,
      "has_k": 0,
      "pm_event": "watford-mayoral-election-winner"
    },
    {
      "lat": 40.42,
      "lng": -82.91,
      "label": "2026 \u2014 Ohio \u2014 Governor (+21 more)",
      "elections": 22,
      "markets": 315,
      "volume": 1289993.55,
      "search_query": "Governor Ohio United States 2026",
      "has_pm": 1,
      "has_k": 1,
      "kalshi_event": "KXGOVOHNOMR-26",
      "pm_event": "oh-07-democratic-primary-winner"
    },
    {
      "lat": 9.93,
      "lng": -84.08,
      "label": "2026 \u2014 Costa Rica \u2014 Parliament",
      "elections": 1,
      "markets": 71,
      "volume": 1270620.48,
      "search_query": "Parliament Costa Rica 2026",
      "has_pm": 1,
      "has_k": 1,
      "kalshi_event": "KXCOSTARICAASSEMBLY-26"
    },
    {
      "lat": -17.78,
      "lng": -63.18,
      "label": "2026 \u2014 Santa Cruz de la Sierra \u2014 Mayor",
      "elections": 1,
      "markets": 14,
      "volume": 1053492.82,
      "search_query": "Mayor Santa Cruz de la Sierra Bolivia 2026",
      "has_pm": 1,
      "has_k": 0
    },
    {
      "lat": 41.15,
      "lng": 20.17,
      "label": "2025 \u2014 Albania \u2014 Prime Minister",
      "elections": 1,
      "markets": 17,
      "volume": 987288.6,
      "search_query": "Prime Minister Albania 2025",
      "has_pm": 1,
      "has_k": 0
    },
    {
      "lat": 44.31,
      "lng": -85.6,
      "label": "2026 \u2014 Michigan \u2014 Governor (+25 more)",
      "elections": 26,
      "markets": 422,
      "volume": 761540.04,
      "search_query": "Governor Michigan United States 2026",
      "has_pm": 1,
      "has_k": 1,
      "kalshi_event": "GOVPARTYMI-26"
    },
    {
      "lat": 64.2,
      "lng": -152.49,
      "label": "2026 \u2014 Alaska \u2014 Senate (+4 more)",
      "elections": 5,
      "markets": 132,
      "volume": 738416.21,
      "search_query": "Senate Alaska United States 2026",
      "has_pm": 1,
      "has_k": 1,
      "kalshi_event": "SENATEAK-26"
    },
    {
      "lat": 34.05,
      "lng": -118.24,
      "label": "2026 \u2014 Los Angeles \u2014 Mayor",
      "elections": 1,
      "markets": 25,
      "volume": 637437.62,
      "search_query": "Mayor Los Angeles United States 2026",
      "has_pm": 1,
      "has_k": 1,
      "kalshi_event": "KXMAYORLA-26"
    },
    {
      "lat": 6.85,
      "lng": -5.3,
      "label": "2025 \u2014 Ivory Coast \u2014 President",
      "elections": 1,
      "markets": 19,
      "volume": 570398.62,
      "search_query": "President Ivory Coast 2025",
      "has_pm": 1,
      "has_k": 0
    },
    {
      "lat": 32.68,
      "lng": -83.22,
      "label": "2026 \u2014 Georgia \u2014 Governor (+23 more)",
      "elections": 24,
      "markets": 426,
      "volume": 569077.2,
      "search_query": "Governor Georgia United States 2026",
      "has_pm": 1,
      "has_k": 1,
      "kalshi_event": "KXGOVGANOMR-26"
    },
    {
      "lat": 43.71,
      "lng": 7.26,
      "label": "2026 \u2014 Nice \u2014 Mayor",
      "elections": 1,
      "markets": 17,
      "volume": 567448.87,
      "search_query": "Mayor Nice France 2026",
      "has_pm": 1,
      "has_k": 0
    },
    {
      "lat": 42.17,
      "lng": -74.95,
      "label": "2026 \u2014 New York \u2014 Governor (+36 more)",
      "elections": 37,
      "markets": 525,
      "volume": 504704.37,
      "search_query": "Governor New York United States 2026",
      "has_pm": 1,
      "has_k": 1,
      "kalshi_event": "GOVPARTYNY-26"
    },
    {
      "lat": 41.65,
      "lng": -4.73,
      "label": "2026 \u2014 Castilla y Le\u00f3n \u2014 Regional",
      "elections": 1,
      "markets": 19,
      "volume": 501167.76,
      "search_query": "Regional Castilla y Le\u00f3n Spain 2026",
      "has_pm": 1,
      "has_k": 0
    },
    {
      "lat": 37.27,
      "lng": 127.01,
      "label": "2026 \u2014 Gyeonggi Province \u2014 Regional",
      "elections": 1,
      "markets": 68,
      "volume": 462956.2,
      "search_query": "Regional Gyeonggi Province South Korea 2026",
      "has_pm": 1,
      "has_k": 0
    },
    {
      "lat": 35.52,
      "lng": -86.58,
      "label": "2024 \u2014 TN-7 \u2014 House (+13 more)",
      "elections": 14,
      "markets": 227,
      "volume": 459570.78,
      "search_query": "House TN-7 United States 2024",
      "has_pm": 1,
      "has_k": 1,
      "kalshi_event": "KXGOVTNNOMD-26",
      "pm_event": "tennessee-democratic-senate-primary-winner"
    },
    {
      "lat": 41.88,
      "lng": -93.1,
      "label": "2026 \u2014 Iowa \u2014 Senate (+10 more)",
      "elections": 11,
      "markets": 263,
      "volume": 455259.73,
      "search_query": "Senate Iowa United States 2026",
      "has_pm": 1,
      "has_k": 1,
      "kalshi_event": "SENATEIA-26"
    },
    {
      "lat": 34.05,
      "lng": -111.09,
      "label": "2026 \u2014 Arizona \u2014 Governor (+12 more)",
      "elections": 13,
      "markets": 203,
      "volume": 428772.51,
      "search_query": "Governor Arizona United States 2026",
      "has_pm": 1,
      "has_k": 1,
      "kalshi_event": "GOVPARTYAZ-26"
    },
    {
      "lat": 33.89,
      "lng": 35.5,
      "label": "2026 \u2014 Lebanon \u2014 Parliament",
      "elections": 1,
      "markets": 54,
      "volume": 357751.86,
      "search_query": "Parliament Lebanon 2026",
      "has_pm": 1,
      "has_k": 1,
      "kalshi_event": "KXLEBANONPARLI-26"
    },
    {
      "lat": 47.75,
      "lng": -120.74,
      "label": "2024 \u2014 WA-3 \u2014 House (+9 more)",
      "elections": 10,
      "markets": 83,
      "volume": 285139.25,
      "search_query": "House WA-3 United States 2024",
      "has_pm": 1,
      "has_k": 1,
      "kalshi_event": "HOUSEWA3-24"
    },
    {
      "lat": 35.76,
      "lng": -79.02,
      "label": "2026 \u2014 North Carolina \u2014 Senate (+16 more)",
      "elections": 17,
      "markets": 206,
      "volume": 270439.44,
      "search_query": "Senate North Carolina United States 2026",
      "has_pm": 1,
      "has_k": 1,
      "kalshi_event": "SENATENC-26"
    },
    {
      "lat": 35.47,
      "lng": -97.52,
      "label": "2026 \u2014 Oklahoma \u2014 Governor (+24 more)",
      "elections": 25,
      "markets": 198,
      "volume": 260372.69,
      "search_query": "Governor Oklahoma United States 2026",
      "has_pm": 1,
      "has_k": 1,
      "kalshi_event": "KXGOVOKNOMR-26"
    },
    {
      "lat": 52.37,
      "lng": 4.9,
      "label": "2026 \u2014 Amsterdam \u2014 Mayor (+6 more)",
      "elections": 7,
      "markets": 118,
      "volume": 245849.15,
      "search_query": "Mayor Amsterdam Netherlands 2026",
      "has_pm": 1,
      "has_k": 0
    },
    {
      "lat": -17.39,
      "lng": -66.16,
      "label": "2026 \u2014 Cochabamba \u2014 Mayor (+1 more)",
      "elections": 2,
      "markets": 41,
      "volume": 217041.93,
      "search_query": "Mayor Cochabamba Bolivia 2026",
      "has_pm": 1,
      "has_k": 0
    },
    {
      "lat": 32.35,
      "lng": -89.4,
      "label": "2026 \u2014 Mississippi \u2014 Senate (+8 more)",
      "elections": 9,
      "markets": 144,
      "volume": 205372.89,
      "search_query": "Senate Mississippi United States 2026",
      "has_pm": 1,
      "has_k": 1,
      "kalshi_event": "KXSENATEMSR-26"
    },
    {
      "lat": 37.43,
      "lng": -78.66,
      "label": "2024 \u2014 Virginia \u2014 Senate (+13 more)",
      "elections": 14,
      "markets": 170,
      "volume": 194433.95,
      "search_query": "Senate Virginia United States 2024",
      "has_pm": 1,
      "has_k": 1,
      "kalshi_event": "SENATEVA-26"
    },
    {
      "lat": 11.86,
      "lng": -15.6,
      "label": "2025 \u2014 Guinea-Bissau \u2014 President (+1 more)",
      "elections": 2,
      "markets": 60,
      "volume": 185671.78,
      "search_query": "President Guinea-Bissau 2025",
      "has_pm": 1,
      "has_k": 0
    },
    {
      "lat": 34.52,
      "lng": -105.87,
      "label": "2026 \u2014 New Mexico \u2014 Governor (+5 more)",
      "elections": 6,
      "markets": 113,
      "volume": 175537.35,
      "search_query": "Governor New Mexico United States 2026",
      "has_pm": 1,
      "has_k": 1,
      "kalshi_event": "KXGOVNMNOMD-26"
    },
    {
      "lat": 30.98,
      "lng": -91.96,
      "label": "2026 \u2014 Louisiana \u2014 Senate (+9 more)",
      "elections": 10,
      "markets": 176,
      "volume": 173202.52,
      "search_query": "Senate Louisiana United States 2026",
      "has_pm": 1,
      "has_k": 1,
      "kalshi_event": "KXSENATELAR-26"
    },
    {
      "lat": 46.81,
      "lng": -71.21,
      "label": "2026 \u2014 Quebec \u2014 Regional",
      "elections": 1,
      "markets": 38,
      "volume": 156427.68,
      "search_query": "Regional Quebec Canada 2026",
      "has_pm": 1,
      "has_k": 1,
      "kalshi_event": "KXQUEBECASSEMBLY-26OCT05"
    },
    {
      "lat": 33.84,
      "lng": -81.16,
      "label": "2026 \u2014 South Carolina \u2014 Governor (+11 more)",
      "elections": 12,
      "markets": 181,
      "volume": 151879.03,
      "search_query": "Governor South Carolina United States 2026",
      "has_pm": 1,
      "has_k": 1,
      "kalshi_event": "KXGOVSCNOMR-26"
    },
    {
      "lat": 38.46,
      "lng": -92.29,
      "label": "2024 \u2014 MO-1 \u2014 House (+8 more)",
      "elections": 9,
      "markets": 87,
      "volume": 147168.09,
      "search_query": "House MO-1 United States 2024",
      "has_pm": 1,
      "has_k": 0
    },
    {
      "lat": 37.67,
      "lng": -84.67,
      "label": "2024 \u2014 KY-4 \u2014 House (+9 more)",
      "elections": 10,
      "markets": 148,
      "volume": 146311.22,
      "search_query": "House KY-4 United States 2024",
      "has_pm": 1,
      "has_k": 1,
      "kalshi_event": "SENATELA-26"
    },
    {
      "lat": 39.55,
      "lng": -105.78,
      "label": "2024 \u2014 CO-8 \u2014 House (+13 more)",
      "elections": 14,
      "markets": 262,
      "volume": 145730.49,
      "search_query": "House CO-8 United States 2024",
      "has_pm": 1,
      "has_k": 1,
      "kalshi_event": "HOUSECO8-24"
    },
    {
      "lat": 46.8,
      "lng": -110.36,
      "label": "2026 \u2014 Montana \u2014 Senate (+4 more)",
      "elections": 5,
      "markets": 54,
      "volume": 145623.68,
      "search_query": "Senate Montana United States 2026",
      "has_pm": 1,
      "has_k": 1,
      "kalshi_event": "SENATEMT-26"
    },
    {
      "lat": 59.33,
      "lng": 18.07,
      "label": "2026 \u2014 Sweden \u2014 Parliament (+1 more)",
      "elections": 2,
      "markets": 44,
      "volume": 130478.45,
      "search_query": "Parliament Sweden 2026",
      "has_pm": 1,
      "has_k": 1,
      "kalshi_event": "KXSWEDENPARLI-26"
    },
    {
      "lat": 43.19,
      "lng": -71.57,
      "label": "2026 \u2014 New Hampshire \u2014 Senate (+7 more)",
      "elections": 8,
      "markets": 171,
      "volume": 129733.84,
      "search_query": "Senate New Hampshire United States 2026",
      "has_pm": 1,
      "has_k": 1,
      "kalshi_event": "SENATENH-26"
    },
    {
      "lat": 43.78,
      "lng": -88.79,
      "label": "2026 \u2014 Wisconsin \u2014 Governor (+9 more)",
      "elections": 10,
      "markets": 150,
      "volume": 117079.38,
      "search_query": "Governor Wisconsin United States 2026",
      "has_pm": 1,
      "has_k": 1,
      "kalshi_event": "KXGOVWINOMD-26"
    },
    {
      "lat": 32.36,
      "lng": -86.3,
      "label": "2026 \u2014 Alabama \u2014 Senate (+12 more)",
      "elections": 13,
      "markets": 231,
      "volume": 100661.38,
      "search_query": "Senate Alabama United States 2026",
      "has_pm": 1,
      "has_k": 1,
      "kalshi_event": "KXSENATEALR-26"
    },
    {
      "lat": 47.5,
      "lng": 19.04,
      "label": "2026 \u2014 Hungary \u2014 Parliament (+1 more)",
      "elections": 2,
      "markets": 53,
      "volume": 97633.65,
      "search_query": "Parliament Hungary 2026",
      "has_pm": 1,
      "has_k": 1,
      "kalshi_event": "KXHUNGARYPARLI-26"
    },
    {
      "lat": 43.8,
      "lng": -120.55,
      "label": "2024 \u2014 OR-5 \u2014 House (+9 more)",
      "elections": 10,
      "markets": 159,
      "volume": 92582.13,
      "search_query": "House OR-5 United States 2024",
      "has_pm": 1,
      "has_k": 1,
      "kalshi_event": "HOUSEOR5-24"
    },
    {
      "lat": 45.42,
      "lng": -75.69,
      "label": "2024 \u2014 Canada \u2014 Other (+1 more)",
      "elections": 2,
      "markets": 54,
      "volume": 88560.69,
      "search_query": "Other Canada 2024",
      "has_pm": 1,
      "has_k": 1,
      "kalshi_event": "KXOTTAWAMAYOR-26OCT26",
      "pm_event": "ottawa-mayoral-election-winner"
    },
    {
      "lat": 38.8,
      "lng": -116.42,
      "label": "2026 \u2014 Nevada \u2014 Governor (+5 more)",
      "elections": 6,
      "markets": 68,
      "volume": 81620.33,
      "search_query": "Governor Nevada United States 2026",
      "has_pm": 1,
      "has_k": 1,
      "kalshi_event": "GOVPARTYNV-26"
    },
    {
      "lat": 44.07,
      "lng": -114.74,
      "label": "2026 \u2014 Idaho \u2014 Senate (+5 more)",
      "elections": 6,
      "markets": 109,
      "volume": 80669.3,
      "search_query": "Senate Idaho United States 2026",
      "has_pm": 1,
      "has_k": 1,
      "kalshi_event": "SENATEID-26"
    },
    {
      "lat": 41.2,
      "lng": -77.19,
      "label": "2026 \u2014 Pennsylvania \u2014 Governor (+22 more)",
      "elections": 23,
      "markets": 260,
      "volume": 75173.05,
      "search_query": "Governor Pennsylvania United States 2026",
      "has_pm": 1,
      "has_k": 1,
      "kalshi_event": "GOVPARTYPA-26"
    },
    {
      "lat": 39.01,
      "lng": -98.48,
      "label": "2026 \u2014 Kansas \u2014 Governor (+7 more)",
      "elections": 8,
      "markets": 189,
      "volume": 71705.91,
      "search_query": "Governor Kansas United States 2026",
      "has_pm": 1,
      "has_k": 1,
      "kalshi_event": "KXGOVKSNOMD-26"
    },
    {
      "lat": 38.72,
      "lng": -9.14,
      "label": "2026 \u2014 Lisbon \u2014 President",
      "elections": 1,
      "markets": 20,
      "volume": 64743.46,
      "search_query": "President Lisbon Portugal 2026",
      "has_pm": 1,
      "has_k": 0
    },
    {
      "lat": 38.6,
      "lng": -80.45,
      "label": "2026 \u2014 West Virginia \u2014 Senate (+4 more)",
      "elections": 5,
      "markets": 89,
      "volume": 53290.62,
      "search_query": "Senate West Virginia United States 2026",
      "has_pm": 1,
      "has_k": 1,
      "kalshi_event": "KXSENATEWVR-26"
    },
    {
      "lat": 37.88,
      "lng": 127.73,
      "label": "2026 \u2014 Gangwon Province \u2014 Regional",
      "elections": 1,
      "markets": 25,
      "volume": 53146.37,
      "search_query": "Regional Gangwon Province South Korea 2026",
      "has_pm": 1,
      "has_k": 0
    },
    {
      "lat": 42.41,
      "lng": -71.38,
      "label": "2026 \u2014 Massachusetts \u2014 Governor (+14 more)",
      "elections": 15,
      "markets": 194,
      "volume": 44534.82,
      "search_query": "Governor Massachusetts United States 2026",
      "has_pm": 1,
      "has_k": 1,
      "kalshi_event": "GOVPARTYMA-26"
    },
    {
      "lat": 40.18,
      "lng": 44.51,
      "label": "2026 \u2014 Armenia \u2014 Parliament",
      "elections": 1,
      "markets": 39,
      "volume": 44020.16,
      "search_query": "Parliament Armenia 2026",
      "has_pm": 1,
      "has_k": 1,
      "kalshi_event": "KXARMENIAPARLI-26"
    },
    {
      "lat": 53.35,
      "lng": -6.26,
      "label": "2026 \u2014 Dublin Central \u2014 Parliament (+1 more)",
      "elections": 2,
      "markets": 66,
      "volume": 43089.83,
      "search_query": "Parliament Dublin Central Ireland 2026",
      "has_pm": 1,
      "has_k": 0
    },
    {
      "lat": 52.52,
      "lng": 13.41,
      "label": "2026 \u2014 Sachsen-Anhalt \u2014 Parliament (+2 more)",
      "elections": 3,
      "markets": 116,
      "volume": 42738.4,
      "search_query": "Parliament Sachsen-Anhalt Germany 2026",
      "has_pm": 1,
      "has_k": 0
    },
    {
      "lat": 55.76,
      "lng": 37.62,
      "label": "2024 \u2014 Russia \u2014 Parliament",
      "elections": 1,
      "markets": 16,
      "volume": 39904.79,
      "search_query": "Parliament Russia 2024",
      "has_pm": 1,
      "has_k": 0
    },
    {
      "lat": 35.18,
      "lng": 129.08,
      "label": "2026 \u2014 Busan \u2014 Mayor",
      "elections": 1,
      "markets": 65,
      "volume": 35421.1,
      "search_query": "Mayor Busan South Korea 2026",
      "has_pm": 1,
      "has_k": 0
    },
    {
      "lat": 4.36,
      "lng": 18.56,
      "label": "2025 \u2014 Central African Republic \u2014 Parliament",
      "elections": 1,
      "markets": 34,
      "volume": 35405.64,
      "search_query": "Parliament Central African Republic 2025",
      "has_pm": 1,
      "has_k": 0
    },
    {
      "lat": 41.58,
      "lng": -71.48,
      "label": "2026 \u2014 Rhode Island \u2014 Governor (+5 more)",
      "elections": 6,
      "markets": 129,
      "volume": 35112.06,
      "search_query": "Governor Rhode Island United States 2026",
      "has_pm": 1,
      "has_k": 1,
      "kalshi_event": "KXGOVRINOMD-26"
    },
    {
      "lat": 25.03,
      "lng": 121.57,
      "label": "2026 \u2014 Taiwan \u2014 Regional",
      "elections": 1,
      "markets": 30,
      "volume": 32023.89,
      "search_query": "Regional Taiwan 2026",
      "has_pm": 1,
      "has_k": 0
    },
    {
      "lat": 39.05,
      "lng": -76.64,
      "label": "2026 \u2014 Maryland \u2014 Governor (+9 more)",
      "elections": 10,
      "markets": 122,
      "volume": 29934.82,
      "search_query": "Governor Maryland United States 2026",
      "has_pm": 1,
      "has_k": 1,
      "kalshi_event": "KXGOVMDNOMR-26"
    },
    {
      "lat": 37.46,
      "lng": 126.71,
      "label": "2026 \u2014 Incheon \u2014 Mayor",
      "elections": 1,
      "markets": 25,
      "volume": 25908.09,
      "search_query": "Mayor Incheon South Korea 2026",
      "has_pm": 1,
      "has_k": 0
    },
    {
      "lat": 41.6,
      "lng": -72.76,
      "label": "2026 \u2014 Connecticut \u2014 Governor (+7 more)",
      "elections": 8,
      "markets": 143,
      "volume": 21965.28,
      "search_query": "Governor Connecticut United States 2026",
      "has_pm": 1,
      "has_k": 1,
      "kalshi_event": "KXGOVCTNOMD-26"
    },
    {
      "lat": 13.08,
      "lng": 80.27,
      "label": "2026 \u2014 Tamil Nadu \u2014 Regional",
      "elections": 1,
      "markets": 38,
      "volume": 20601.66,
      "search_query": "Regional Tamil Nadu India 2026",
      "has_pm": 1,
      "has_k": 0
    },
    {
      "lat": 44.56,
      "lng": -72.58,
      "label": "2026 \u2014 Vermont \u2014 Governor (+2 more)",
      "elections": 3,
      "markets": 71,
      "volume": 20316.73,
      "search_query": "Governor Vermont United States 2026",
      "has_pm": 1,
      "has_k": 1,
      "kalshi_event": "KXGOVVTNOMD-26"
    },
    {
      "lat": 43.97,
      "lng": -99.9,
      "label": "2026 \u2014 South Dakota \u2014 Governor (+6 more)",
      "elections": 7,
      "markets": 110,
      "volume": 20266.67,
      "search_query": "Governor South Dakota United States 2026",
      "has_pm": 1,
      "has_k": 1,
      "kalshi_event": "KXGOVSDNOMR-26"
    },
    {
      "lat": 22.57,
      "lng": 88.36,
      "label": "2026 \u2014 West Bengal \u2014 Regional",
      "elections": 1,
      "markets": 33,
      "volume": 19993.15,
      "search_query": "Regional West Bengal India 2026",
      "has_pm": 1,
      "has_k": 0
    },
    {
      "lat": 43.08,
      "lng": -107.29,
      "label": "2026 \u2014 Wyoming \u2014 Governor (+3 more)",
      "elections": 4,
      "markets": 74,
      "volume": 19182.86,
      "search_query": "Governor Wyoming United States 2026",
      "has_pm": 1,
      "has_k": 1,
      "kalshi_event": "KXGOVWYNOMR-26"
    },
    {
      "lat": 51.48,
      "lng": -3.18,
      "label": "2026 \u2014 Wales \u2014 Regional",
      "elections": 1,
      "markets": 28,
      "volume": 19042.0,
      "search_query": "Regional Wales United Kingdom 2026",
      "has_pm": 1,
      "has_k": 1,
      "kalshi_event": "KXWALESPARLIAMENT-26MAY07"
    },
    {
      "lat": 41.9,
      "lng": 12.5,
      "label": "2026 \u2014 Selvazzano Dentro \u2014 Regional (+2 more)",
      "elections": 3,
      "markets": 57,
      "volume": 18539.86,
      "search_query": "Regional Selvazzano Dentro Italy 2026",
      "has_pm": 1,
      "has_k": 0,
      "pm_event": "venice-mayoral-election-winner"
    },
    {
      "lat": 9.93,
      "lng": 76.26,
      "label": "2026 \u2014 Kerala \u2014 Regional",
      "elections": 1,
      "markets": 38,
      "volume": 15549.69,
      "search_query": "Regional Kerala India 2026",
      "has_pm": 1,
      "has_k": 0
    },
    {
      "lat": 34.8,
      "lng": -92.2,
      "label": "2026 \u2014 Arkansas \u2014 Senate (+5 more)",
      "elections": 6,
      "markets": 62,
      "volume": 14095.28,
      "search_query": "Senate Arkansas United States 2026",
      "has_pm": 1,
      "has_k": 1,
      "kalshi_event": "SENATEAR-26"
    },
    {
      "lat": 36.66,
      "lng": 126.67,
      "label": "2026 \u2014 Chungcheongnam Province \u2014 Regional",
      "elections": 1,
      "markets": 25,
      "volume": 13280.3,
      "search_query": "Regional Chungcheongnam Province South Korea 2026",
      "has_pm": 1,
      "has_k": 0
    },
    {
      "lat": 38.91,
      "lng": -75.53,
      "label": "2026 \u2014 Delaware \u2014 Senate (+3 more)",
      "elections": 4,
      "markets": 73,
      "volume": 11541.92,
      "search_query": "Senate Delaware United States 2026",
      "has_pm": 1,
      "has_k": 1,
      "kalshi_event": "SENATEDE-26"
    },
    {
      "lat": 40.27,
      "lng": -86.13,
      "label": "2024 \u2014 IN-8 \u2014 House (+10 more)",
      "elections": 11,
      "markets": 111,
      "volume": 11262.86,
      "search_query": "House IN-8 United States 2024",
      "has_pm": 1,
      "has_k": 0
    },
    {
      "lat": 19.9,
      "lng": -155.58,
      "label": "2026 \u2014 Hawaii \u2014 Governor (+2 more)",
      "elections": 3,
      "markets": 33,
      "volume": 6444.0,
      "search_query": "Governor Hawaii United States 2026",
      "has_pm": 1,
      "has_k": 1,
      "kalshi_event": "GOVPARTYHI-26"
    },
    {
      "lat": 43.65,
      "lng": -79.38,
      "label": "2026 \u2014 Toronto \u2014 Mayor",
      "elections": 1,
      "markets": 40,
      "volume": 6428.03,
      "search_query": "Mayor Toronto Canada 2026",
      "has_pm": 1,
      "has_k": 1,
      "kalshi_event": "KXTORONTOMAYOR-26OCT26",
      "pm_event": "toronto-mayoral-election-winner-545"
    },
    {
      "lat": 55.95,
      "lng": -3.19,
      "label": "2026 \u2014 Scotland \u2014 Parliament (+1 more)",
      "elections": 2,
      "markets": 34,
      "volume": 5581.0,
      "search_query": "Parliament Scotland United Kingdom 2026",
      "has_pm": 1,
      "has_k": 1,
      "kalshi_event": "KXSCOTPARLIAMENT-26MAY07"
    },
    {
      "lat": 56.95,
      "lng": 24.11,
      "label": "2026 \u2014 Latvia \u2014 Parliament",
      "elections": 1,
      "markets": 45,
      "volume": 4335.55,
      "search_query": "Parliament Latvia 2026",
      "has_pm": 1,
      "has_k": 1,
      "kalshi_event": "KXLATVIAPARLIAMENT-26DEC31"
    },
    {
      "lat": 36.64,
      "lng": 127.49,
      "label": "2026 \u2014 Chungcheongbuk Province \u2014 Regional",
      "elections": 1,
      "markets": 24,
      "volume": 3710.11,
      "search_query": "Regional Chungcheongbuk Province South Korea 2026",
      "has_pm": 1,
      "has_k": 0
    },
    {
      "lat": 26.14,
      "lng": 91.74,
      "label": "2026 \u2014 Assam \u2014 Regional",
      "elections": 1,
      "markets": 37,
      "volume": 2103.08,
      "search_query": "Regional Assam India 2026",
      "has_pm": 1,
      "has_k": 0
    },
    {
      "lat": 39.32,
      "lng": -111.09,
      "label": "2024 \u2014 UT-4 \u2014 House (+4 more)",
      "elections": 5,
      "markets": 57,
      "volume": 2005.54,
      "search_query": "House UT-4 United States 2024",
      "has_pm": 1,
      "has_k": 0
    },
    {
      "lat": 42.7,
      "lng": 23.32,
      "label": "2026 \u2014 Bulgaria \u2014 Parliament (+1 more)",
      "elections": 2,
      "markets": 103,
      "volume": 1582.13,
      "search_query": "Parliament Bulgaria 2026",
      "has_pm": 1,
      "has_k": 1,
      "kalshi_event": "KXBULGARIAPARLI-26APR19"
    },
    {
      "lat": 49.28,
      "lng": -123.12,
      "label": "2026 \u2014 Vancouver \u2014 Mayor (+1 more)",
      "elections": 2,
      "markets": 82,
      "volume": 807.0,
      "search_query": "Mayor Vancouver Canada 2026",
      "has_pm": 1,
      "has_k": 1,
      "kalshi_event": "KXVANCOUVERMAYOR-26OCT17",
      "pm_event": "vancouver-mayoral-election-winner"
    },
    {
      "lat": 11.93,
      "lng": 79.83,
      "label": "2026 \u2014 Puducherry \u2014 Regional",
      "elections": 1,
      "markets": 35,
      "volume": 775.81,
      "search_query": "Regional Puducherry India 2026",
      "has_pm": 1,
      "has_k": 0
    },
    {
      "lat": 9.01,
      "lng": 38.75,
      "label": "2026 \u2014 Ethiopia \u2014 Parliament",
      "elections": 1,
      "markets": 32,
      "volume": 754.3,
      "search_query": "Parliament Ethiopia 2026",
      "has_pm": 1,
      "has_k": 0
    },
    {
      "lat": 13.44,
      "lng": 144.79,
      "label": "2026 \u2014 Guam \u2014 Governor",
      "elections": 1,
      "markets": 39,
      "volume": 0.0,
      "search_query": "Governor Guam United States 2026",
      "has_pm": 1,
      "has_k": 0
    },
    {
      "lat": 47.55,
      "lng": -101.0,
      "label": "2024 \u2014 ND-AL \u2014 House",
      "elections": 1,
      "markets": 8,
      "volume": 0.0,
      "search_query": "House ND-AL United States 2024",
      "has_pm": 1,
      "has_k": 0
    },
    {
      "lat": 40.42,
      "lng": -3.7,
      "label": "2026 \u2014 Andalusia \u2014 Regional",
      "elections": 1,
      "markets": 14,
      "volume": 0.0,
      "search_query": "Regional Andalusia Spain 2026",
      "has_pm": 1,
      "has_k": 0,
      "pm_event": "andalusia-election-pp-of-seats"
    }
  ],
  "completed": [
    {
      "lat": 38.9,
      "lng": -77.04,
      "label": "2024 \u2014 United States \u2014 Vice President (+43 more)",
      "elections": 44,
      "markets": 360,
      "volume": 1073697833.37,
      "search_query": "Vice President United States 2024",
      "has_pm": 1,
      "has_k": 1,
      "kalshi_event": "CONTROLH-2024"
    },
    {
      "lat": 40.71,
      "lng": -74.01,
      "label": "2025 \u2014 New York City \u2014 Mayor (+3 more)",
      "elections": 4,
      "markets": 131,
      "volume": 443669837.72,
      "search_query": "Mayor New York City United States 2025",
      "has_pm": 1,
      "has_k": 1,
      "kalshi_event": "KXMAMDANIBOROUGHS-25"
    },
    {
      "lat": 44.43,
      "lng": 26.1,
      "label": "2024 \u2014 Romania \u2014 President (+3 more)",
      "elections": 4,
      "markets": 40,
      "volume": 371879732.02,
      "search_query": "President Romania 2024",
      "has_pm": 1,
      "has_k": 1,
      "kalshi_event": "KXPRESROMANIA24"
    },
    {
      "lat": 37.57,
      "lng": 126.98,
      "label": "2024 \u2014 South Korea \u2014 President (+2 more)",
      "elections": 3,
      "markets": 30,
      "volume": 258379857.15,
      "search_query": "President South Korea 2024",
      "has_pm": 1,
      "has_k": 1,
      "kalshi_event": "KXSKPRES-30"
    },
    {
      "lat": 41.2,
      "lng": -77.19,
      "label": "2024 \u2014 Pennsylvania \u2014 President (+31 more)",
      "elections": 32,
      "markets": 95,
      "volume": 231822962.2,
      "search_query": "President Pennsylvania United States 2024",
      "has_pm": 1,
      "has_k": 1,
      "kalshi_event": "PRESPARTYPA-24"
    },
    {
      "lat": 38.72,
      "lng": -9.14,
      "label": "2026 \u2014 Portugal \u2014 President (+9 more)",
      "elections": 10,
      "markets": 360,
      "volume": 151753494.32,
      "search_query": "President Portugal 2026",
      "has_pm": 1,
      "has_k": 1,
      "kalshi_event": "KXPORTUGALPRES-26FEB15"
    },
    {
      "lat": 53.35,
      "lng": -6.26,
      "label": "2024 \u2014 Ireland \u2014 President (+2 more)",
      "elections": 3,
      "markets": 53,
      "volume": 144444467.14,
      "search_query": "President Ireland 2024",
      "has_pm": 1,
      "has_k": 1,
      "kalshi_event": "KXIRISH1ROUND-25OCT24"
    },
    {
      "lat": 42.17,
      "lng": -74.95,
      "label": "2024 \u2014 New York \u2014 Mayor (+49 more)",
      "elections": 50,
      "markets": 246,
      "volume": 90713724.23,
      "search_query": "Mayor New York United States 2024",
      "has_pm": 1,
      "has_k": 1,
      "kalshi_event": "PRESPARTYNY-24"
    },
    {
      "lat": 38.8,
      "lng": -116.42,
      "label": "2024 \u2014 Nevada \u2014 President (+10 more)",
      "elections": 11,
      "markets": 69,
      "volume": 77245756.3,
      "search_query": "President Nevada United States 2024",
      "has_pm": 1,
      "has_k": 1,
      "kalshi_event": "PRESPARTYNV-24"
    },
    {
      "lat": 41.88,
      "lng": -93.1,
      "label": "2024 \u2014 Iowa \u2014 President (+10 more)",
      "elections": 11,
      "markets": 59,
      "volume": 53771654.56,
      "search_query": "President Iowa United States 2024",
      "has_pm": 1,
      "has_k": 1,
      "kalshi_event": "PRESPARTYIA-24"
    },
    {
      "lat": 43.78,
      "lng": -88.79,
      "label": "2024 \u2014 Wisconsin \u2014 President (+17 more)",
      "elections": 18,
      "markets": 57,
      "volume": 52294288.64,
      "search_query": "President Wisconsin United States 2024",
      "has_pm": 1,
      "has_k": 1,
      "kalshi_event": "PRESPARTYWI-24"
    },
    {
      "lat": 52.37,
      "lng": 4.9,
      "label": "2025 \u2014 Netherlands \u2014 Parliament (+1 more)",
      "elections": 2,
      "markets": 160,
      "volume": 45604488.72,
      "search_query": "Parliament Netherlands 2025",
      "has_pm": 1,
      "has_k": 1,
      "kalshi_event": "KXCDASEATS-25OCT29"
    },
    {
      "lat": 34.05,
      "lng": -111.09,
      "label": "2024 \u2014 Arizona \u2014 Senate (+21 more)",
      "elections": 22,
      "markets": 83,
      "volume": 43617873.99,
      "search_query": "Senate Arizona United States 2024",
      "has_pm": 1,
      "has_k": 1,
      "kalshi_event": "SENATEAZ-24"
    },
    {
      "lat": -23.55,
      "lng": -46.64,
      "label": "2024 \u2014 S\u00e3o Paulo \u2014 Mayor (+1 more)",
      "elections": 2,
      "markets": 12,
      "volume": 41575390.39,
      "search_query": "Mayor S\u00e3o Paulo Brazil 2024",
      "has_pm": 1,
      "has_k": 1,
      "kalshi_event": "KXBRAZILSENATE-26OCT04"
    },
    {
      "lat": 44.31,
      "lng": -85.6,
      "label": "2024 \u2014 Michigan \u2014 President (+17 more)",
      "elections": 18,
      "markets": 62,
      "volume": 30896021.76,
      "search_query": "President Michigan United States 2024",
      "has_pm": 1,
      "has_k": 1,
      "kalshi_event": "PRESPARTYMI-24"
    },
    {
      "lat": -16.5,
      "lng": -68.15,
      "label": "2025 \u2014 Bolivia \u2014 President (+2 more)",
      "elections": 3,
      "markets": 75,
      "volume": 30863734.09,
      "search_query": "President Bolivia 2025",
      "has_pm": 1,
      "has_k": 1,
      "kalshi_event": "KXBOLIVIAPRES-25"
    },
    {
      "lat": 37.43,
      "lng": -78.66,
      "label": "2024 \u2014 Virginia \u2014 President (+26 more)",
      "elections": 27,
      "markets": 117,
      "volume": 28560749.67,
      "search_query": "President Virginia United States 2024",
      "has_pm": 1,
      "has_k": 1,
      "kalshi_event": "PRESPARTYVA-24"
    },
    {
      "lat": 14.07,
      "lng": -87.19,
      "label": "2025 \u2014 Honduras \u2014 President (+2 more)",
      "elections": 3,
      "markets": 38,
      "volume": 23349317.38,
      "search_query": "President Honduras 2025",
      "has_pm": 1,
      "has_k": 1,
      "kalshi_event": "KXHONDURASPRES-25"
    },
    {
      "lat": 40.06,
      "lng": -74.41,
      "label": "2025 \u2014 New Jersey \u2014 Governor (+18 more)",
      "elections": 19,
      "markets": 171,
      "volume": 23071403.82,
      "search_query": "Governor New Jersey United States 2025",
      "has_pm": 1,
      "has_k": 1,
      "kalshi_event": "GOVPARTYNJ-25"
    },
    {
      "lat": 32.68,
      "lng": -83.22,
      "label": "2024 \u2014 Georgia \u2014 President (+33 more)",
      "elections": 34,
      "markets": 116,
      "volume": 21750217.77,
      "search_query": "President Georgia United States 2024",
      "has_pm": 1,
      "has_k": 1,
      "kalshi_event": "PRESPARTYGA-24"
    },
    {
      "lat": 40.42,
      "lng": -82.91,
      "label": "2024 \u2014 Ohio \u2014 Senate (+35 more)",
      "elections": 36,
      "markets": 141,
      "volume": 17857660.11,
      "search_query": "Senate Ohio United States 2024",
      "has_pm": 1,
      "has_k": 1,
      "kalshi_event": "SENATEOH-24"
    },
    {
      "lat": 35.76,
      "lng": -79.02,
      "label": "2024 \u2014 North Carolina \u2014 President (+34 more)",
      "elections": 35,
      "markets": 173,
      "volume": 17714539.39,
      "search_query": "President North Carolina United States 2024",
      "has_pm": 1,
      "has_k": 1,
      "kalshi_event": "PRESPARTYNC-24"
    },
    {
      "lat": 31.97,
      "lng": -99.9,
      "label": "2024 \u2014 Texas \u2014 President (+94 more)",
      "elections": 95,
      "markets": 573,
      "volume": 16981949.37,
      "search_query": "President Texas United States 2024",
      "has_pm": 1,
      "has_k": 1,
      "kalshi_event": "PRESPARTYTX-24"
    },
    {
      "lat": 27.99,
      "lng": -81.76,
      "label": "2024 \u2014 Florida \u2014 President (+40 more)",
      "elections": 41,
      "markets": 126,
      "volume": 15609417.57,
      "search_query": "President Florida United States 2024",
      "has_pm": 1,
      "has_k": 1,
      "kalshi_event": "PRESPARTYFL-24"
    },
    {
      "lat": 35.68,
      "lng": 139.69,
      "label": "2026 \u2014 Japan \u2014 Prime Minister (+5 more)",
      "elections": 6,
      "markets": 225,
      "volume": 12887702.54,
      "search_query": "Prime Minister Japan 2026",
      "has_pm": 1,
      "has_k": 1,
      "kalshi_event": "KXNEXTJPNPM-26JAN01"
    },
    {
      "lat": -34.6,
      "lng": -58.38,
      "label": "2025 \u2014 Argentina \u2014 Parliament (+2 more)",
      "elections": 3,
      "markets": 34,
      "volume": 12375224.18,
      "search_query": "Parliament Argentina 2025",
      "has_pm": 1,
      "has_k": 1,
      "kalshi_event": "KXARGENTINAPARTY"
    },
    {
      "lat": 43.19,
      "lng": -71.57,
      "label": "2024 \u2014 New Hampshire \u2014 President (+7 more)",
      "elections": 8,
      "markets": 43,
      "volume": 11799258.64,
      "search_query": "President New Hampshire United States 2024",
      "has_pm": 1,
      "has_k": 1,
      "kalshi_event": "PRESPARTYNH-24"
    },
    {
      "lat": 40.63,
      "lng": -89.4,
      "label": "2024 \u2014 Illinois \u2014 President (+36 more)",
      "elections": 37,
      "markets": 147,
      "volume": 10173938.23,
      "search_query": "President Illinois United States 2024",
      "has_pm": 1,
      "has_k": 1,
      "kalshi_event": "PRESPARTYIL-24"
    },
    {
      "lat": 48.78,
      "lng": 9.18,
      "label": "2026 \u2014 Baden-W\u00fcrttemberg \u2014 Parliament (+1 more)",
      "elections": 2,
      "markets": 71,
      "volume": 10147254.88,
      "search_query": "Parliament Baden-W\u00fcrttemberg Germany 2026",
      "has_pm": 1,
      "has_k": 1,
      "kalshi_event": "KXBADWUR-26MAR08"
    },
    {
      "lat": -33.87,
      "lng": 151.21,
      "label": "2025 \u2014 Australia \u2014 Prime Minister (+4 more)",
      "elections": 5,
      "markets": 41,
      "volume": 8639398.64,
      "search_query": "Prime Minister Australia 2025",
      "has_pm": 1,
      "has_k": 1,
      "kalshi_event": "KXAUSTRALIAHOUSE-28"
    },
    {
      "lat": 53.9,
      "lng": 27.57,
      "label": "2025 \u2014 Belarus \u2014 President",
      "elections": 1,
      "markets": 13,
      "volume": 7470877.22,
      "search_query": "President Belarus 2025",
      "has_pm": 1,
      "has_k": 0
    },
    {
      "lat": 46.73,
      "lng": -94.69,
      "label": "2024 \u2014 Minnesota \u2014 President (+14 more)",
      "elections": 15,
      "markets": 52,
      "volume": 6843443.02,
      "search_query": "President Minnesota United States 2024",
      "has_pm": 1,
      "has_k": 1,
      "kalshi_event": "PRESPARTYMN-24"
    },
    {
      "lat": 10.49,
      "lng": -66.88,
      "label": "2024 \u2014 Venezuela \u2014 President",
      "elections": 1,
      "markets": 5,
      "volume": 6152241.38,
      "search_query": "President Venezuela 2024",
      "has_pm": 1,
      "has_k": 0
    },
    {
      "lat": 45.37,
      "lng": -69.6,
      "label": "2024 \u2014 ME-2 \u2014 House (+10 more)",
      "elections": 11,
      "markets": 35,
      "volume": 5849938.99,
      "search_query": "House ME-2 United States 2024",
      "has_pm": 1,
      "has_k": 1,
      "kalshi_event": "HOUSEME2-24"
    },
    {
      "lat": 5.82,
      "lng": -55.17,
      "label": "2025 \u2014 Suriname \u2014 President (+1 more)",
      "elections": 2,
      "markets": 24,
      "volume": 5403375.08,
      "search_query": "President Suriname 2025",
      "has_pm": 1,
      "has_k": 0
    },
    {
      "lat": 39.55,
      "lng": -105.78,
      "label": "2024 \u2014 Colorado \u2014 President (+16 more)",
      "elections": 17,
      "markets": 49,
      "volume": 5200498.15,
      "search_query": "President Colorado United States 2024",
      "has_pm": 1,
      "has_k": 1,
      "kalshi_event": "PRESPARTYCO-24"
    },
    {
      "lat": -0.18,
      "lng": -78.47,
      "label": "2025 \u2014 Ecuador \u2014 President",
      "elections": 1,
      "markets": 23,
      "volume": 4911039.96,
      "search_query": "President Ecuador 2025",
      "has_pm": 1,
      "has_k": 1,
      "kalshi_event": "KXPRESECUADOR25"
    },
    {
      "lat": 21.03,
      "lng": 105.85,
      "label": "2024 \u2014 Vietnam \u2014 Other",
      "elections": 1,
      "markets": 8,
      "volume": 4716188.54,
      "search_query": "Other Vietnam 2024",
      "has_pm": 1,
      "has_k": 0
    },
    {
      "lat": 46.8,
      "lng": -110.36,
      "label": "2024 \u2014 Montana \u2014 Senate (+6 more)",
      "elections": 7,
      "markets": 30,
      "volume": 4620278.35,
      "search_query": "Senate Montana United States 2024",
      "has_pm": 1,
      "has_k": 1,
      "kalshi_event": "SENATEMT-24"
    },
    {
      "lat": 19.9,
      "lng": -155.58,
      "label": "2024 \u2014 Hawaii \u2014 President (+5 more)",
      "elections": 6,
      "markets": 19,
      "volume": 4457775.28,
      "search_query": "President Hawaii United States 2024",
      "has_pm": 1,
      "has_k": 1,
      "kalshi_event": "PRESPARTYHI-24"
    },
    {
      "lat": 9.93,
      "lng": -84.08,
      "label": "2026 \u2014 Costa Rica \u2014 President",
      "elections": 1,
      "markets": 42,
      "volume": 4361346.61,
      "search_query": "President Costa Rica 2026",
      "has_pm": 1,
      "has_k": 1,
      "kalshi_event": "KXCOSTARICAPRES-26"
    },
    {
      "lat": 36.78,
      "lng": -119.42,
      "label": "2024 \u2014 California \u2014 President (+65 more)",
      "elections": 66,
      "markets": 194,
      "volume": 4089242.53,
      "search_query": "President California United States 2024",
      "has_pm": 1,
      "has_k": 1,
      "kalshi_event": "PRESPARTYCA-24"
    },
    {
      "lat": 41.49,
      "lng": -99.9,
      "label": "2024 \u2014 Nebraska \u2014 Senate (+10 more)",
      "elections": 11,
      "markets": 36,
      "volume": 4028740.56,
      "search_query": "Senate Nebraska United States 2024",
      "has_pm": 1,
      "has_k": 1,
      "kalshi_event": "SENATENE-24"
    },
    {
      "lat": -33.45,
      "lng": -70.67,
      "label": "2025 \u2014 Chile \u2014 President (+5 more)",
      "elections": 6,
      "markets": 63,
      "volume": 3829417.9,
      "search_query": "President Chile 2025",
      "has_pm": 1,
      "has_k": 1,
      "kalshi_event": "KXCHILE1ROUND-25"
    },
    {
      "lat": 25.03,
      "lng": 121.57,
      "label": "2024 \u2014 Taiwan \u2014 President (+2 more)",
      "elections": 3,
      "markets": 7,
      "volume": 3827957.68,
      "search_query": "President Taiwan 2024",
      "has_pm": 1,
      "has_k": 1,
      "kalshi_event": "KXPRESTAIWAN-28"
    },
    {
      "lat": 45.42,
      "lng": -75.69,
      "label": "2024 \u2014 Canada \u2014 Parliament (+17 more)",
      "elections": 18,
      "markets": 137,
      "volume": 3519956.05,
      "search_query": "Parliament Canada 2024",
      "has_pm": 1,
      "has_k": 1,
      "kalshi_event": "KXCAN2ND-25"
    },
    {
      "lat": 44.98,
      "lng": -93.27,
      "label": "2025 \u2014 Minneapolis \u2014 Mayor (+1 more)",
      "elections": 2,
      "markets": 23,
      "volume": 3503512.34,
      "search_query": "Mayor Minneapolis United States 2025",
      "has_pm": 1,
      "has_k": 1,
      "kalshi_event": "KXMAYORMINN-26"
    },
    {
      "lat": 43.65,
      "lng": -79.38,
      "label": "2024 \u2014 Ontario \u2014 Parliament (+1 more)",
      "elections": 2,
      "markets": 15,
      "volume": 3288292.38,
      "search_query": "Parliament Ontario Canada 2024",
      "has_pm": 1,
      "has_k": 1,
      "kalshi_event": "KXONTPARTY-25"
    },
    {
      "lat": 34.52,
      "lng": -105.87,
      "label": "2024 \u2014 New Mexico \u2014 President (+5 more)",
      "elections": 6,
      "markets": 17,
      "volume": 3183992.13,
      "search_query": "President New Mexico United States 2024",
      "has_pm": 1,
      "has_k": 1,
      "kalshi_event": "PRESPARTYNM-24"
    },
    {
      "lat": 38.46,
      "lng": -92.29,
      "label": "2024 \u2014 Missouri \u2014 President (+13 more)",
      "elections": 14,
      "markets": 38,
      "volume": 3023052.77,
      "search_query": "President Missouri United States 2024",
      "has_pm": 1,
      "has_k": 1,
      "kalshi_event": "PRESPARTYMO-24"
    },
    {
      "lat": 37.67,
      "lng": -84.67,
      "label": "2024 \u2014 Kentucky \u2014 President (+16 more)",
      "elections": 17,
      "markets": 78,
      "volume": 2990699.23,
      "search_query": "President Kentucky United States 2024",
      "has_pm": 1,
      "has_k": 1,
      "kalshi_event": "PRESPARTYKY-24"
    },
    {
      "lat": 64.2,
      "lng": -152.49,
      "label": "2024 \u2014 Alaska \u2014 President (+4 more)",
      "elections": 5,
      "markets": 15,
      "volume": 2543271.63,
      "search_query": "President Alaska United States 2024",
      "has_pm": 1,
      "has_k": 1,
      "kalshi_event": "PRESPARTYAK-24"
    },
    {
      "lat": 23.81,
      "lng": 90.41,
      "label": "2024 \u2014 Bangladesh \u2014 Parliament",
      "elections": 1,
      "markets": 19,
      "volume": 2518724.45,
      "search_query": "Parliament Bangladesh 2024",
      "has_pm": 1,
      "has_k": 0
    },
    {
      "lat": 43.08,
      "lng": -107.29,
      "label": "2024 \u2014 Wyoming \u2014 President (+3 more)",
      "elections": 4,
      "markets": 17,
      "volume": 2381310.94,
      "search_query": "President Wyoming United States 2024",
      "has_pm": 1,
      "has_k": 1,
      "kalshi_event": "PRESPARTYWY-24"
    },
    {
      "lat": 44.56,
      "lng": -72.58,
      "label": "2024 \u2014 Vermont \u2014 President (+7 more)",
      "elections": 8,
      "markets": 22,
      "volume": 2229837.84,
      "search_query": "President Vermont United States 2024",
      "has_pm": 1,
      "has_k": 1,
      "kalshi_event": "PRESPARTYVT-24"
    },
    {
      "lat": 34.8,
      "lng": -92.2,
      "label": "2024 \u2014 Arkansas \u2014 President (+13 more)",
      "elections": 14,
      "markets": 84,
      "volume": 2222242.54,
      "search_query": "President Arkansas United States 2024",
      "has_pm": 1,
      "has_k": 1,
      "kalshi_event": "PRESPARTYAR-24"
    },
    {
      "lat": 33.84,
      "lng": -81.16,
      "label": "2024 \u2014 South Carolina \u2014 President (+12 more)",
      "elections": 13,
      "markets": 50,
      "volume": 2095576.27,
      "search_query": "President South Carolina United States 2024",
      "has_pm": 1,
      "has_k": 1,
      "kalshi_event": "PRESPARTYSC-24"
    },
    {
      "lat": 47.01,
      "lng": 28.86,
      "label": "2024 \u2014 Moldova \u2014 President (+2 more)",
      "elections": 3,
      "markets": 35,
      "volume": 2069513.67,
      "search_query": "President Moldova 2024",
      "has_pm": 1,
      "has_k": 1,
      "kalshi_event": "KXMOLDOVABEP-25SEP28"
    },
    {
      "lat": 39.05,
      "lng": -76.64,
      "label": "2024 \u2014 Maryland \u2014 President (+13 more)",
      "elections": 14,
      "markets": 57,
      "volume": 1895886.71,
      "search_query": "President Maryland United States 2024",
      "has_pm": 1,
      "has_k": 1,
      "kalshi_event": "PRESPARTYMD-24"
    },
    {
      "lat": 35.52,
      "lng": -86.58,
      "label": "2023 \u2014 TN-7 \u2014 House (+16 more)",
      "elections": 17,
      "markets": 76,
      "volume": 1800455.26,
      "search_query": "House TN-7 United States 2023",
      "has_pm": 1,
      "has_k": 1,
      "kalshi_event": "PRESPARTYTN-24"
    },
    {
      "lat": 38.6,
      "lng": -80.45,
      "label": "2024 \u2014 West Virginia \u2014 President (+7 more)",
      "elections": 8,
      "markets": 26,
      "volume": 1737190.11,
      "search_query": "President West Virginia United States 2024",
      "has_pm": 1,
      "has_k": 1,
      "kalshi_event": "PRESPARTYWV-24"
    },
    {
      "lat": 37.77,
      "lng": -122.42,
      "label": "2024 \u2014 San Francisco \u2014 Mayor",
      "elections": 1,
      "markets": 6,
      "volume": 1685538.86,
      "search_query": "Mayor San Francisco United States 2024",
      "has_pm": 1,
      "has_k": 0
    },
    {
      "lat": -4.68,
      "lng": 55.47,
      "label": "2025 \u2014 Seychelles \u2014 President",
      "elections": 1,
      "markets": 22,
      "volume": 1597870.33,
      "search_query": "President Seychelles 2025",
      "has_pm": 1,
      "has_k": 1,
      "kalshi_event": "KXSEYCHELLESPRES-25"
    },
    {
      "lat": 47.55,
      "lng": -101.0,
      "label": "2024 \u2014 North Dakota \u2014 President (+7 more)",
      "elections": 8,
      "markets": 27,
      "volume": 1489527.29,
      "search_query": "President North Dakota United States 2024",
      "has_pm": 1,
      "has_k": 1,
      "kalshi_event": "PRESPARTYND-24"
    },
    {
      "lat": 42.41,
      "lng": -71.38,
      "label": "2024 \u2014 Massachusetts \u2014 Senate (+14 more)",
      "elections": 15,
      "markets": 41,
      "volume": 1455235.95,
      "search_query": "Senate Massachusetts United States 2024",
      "has_pm": 1,
      "has_k": 1,
      "kalshi_event": "PRESPARTYMA-24"
    },
    {
      "lat": 47.75,
      "lng": -120.74,
      "label": "2024 \u2014 Washington \u2014 President (+16 more)",
      "elections": 17,
      "markets": 48,
      "volume": 1379576.98,
      "search_query": "President Washington United States 2024",
      "has_pm": 1,
      "has_k": 1,
      "kalshi_event": "PRESPARTYDC-24"
    },
    {
      "lat": 47.61,
      "lng": -122.33,
      "label": "2025 \u2014 Seattle \u2014 Mayor",
      "elections": 1,
      "markets": 31,
      "volume": 1286084.91,
      "search_query": "Mayor Seattle United States 2025",
      "has_pm": 1,
      "has_k": 1,
      "kalshi_event": "KXMAYORSEATTLE-25"
    },
    {
      "lat": -34.88,
      "lng": -56.18,
      "label": "2024 \u2014 Uruguay \u2014 President",
      "elections": 1,
      "markets": 7,
      "volume": 1043470.04,
      "search_query": "President Uruguay 2024",
      "has_pm": 1,
      "has_k": 1,
      "kalshi_event": "KXPRESURUGUAY"
    },
    {
      "lat": 40.27,
      "lng": -86.13,
      "label": "2024 \u2014 Indiana \u2014 President (+24 more)",
      "elections": 25,
      "markets": 92,
      "volume": 931292.77,
      "search_query": "President Indiana United States 2024",
      "has_pm": 1,
      "has_k": 1,
      "kalshi_event": "PRESPARTYIN-24"
    },
    {
      "lat": 39.01,
      "lng": -98.48,
      "label": "2024 \u2014 Kansas \u2014 President (+8 more)",
      "elections": 9,
      "markets": 29,
      "volume": 895526.03,
      "search_query": "President Kansas United States 2024",
      "has_pm": 1,
      "has_k": 1,
      "kalshi_event": "PRESPARTYKS-24"
    },
    {
      "lat": 38.91,
      "lng": -75.53,
      "label": "2024 \u2014 Delaware \u2014 President (+6 more)",
      "elections": 7,
      "markets": 30,
      "volume": 865082.8,
      "search_query": "President Delaware United States 2024",
      "has_pm": 1,
      "has_k": 1,
      "kalshi_event": "PRESPARTYDE-24"
    },
    {
      "lat": 32.35,
      "lng": -89.4,
      "label": "2024 \u2014 Mississippi \u2014 President (+11 more)",
      "elections": 12,
      "markets": 35,
      "volume": 835418.21,
      "search_query": "President Mississippi United States 2024",
      "has_pm": 1,
      "has_k": 1,
      "kalshi_event": "PRESPARTYMS-24"
    },
    {
      "lat": 39.32,
      "lng": -111.09,
      "label": "2024 \u2014 Utah \u2014 President (+14 more)",
      "elections": 15,
      "markets": 44,
      "volume": 772131.19,
      "search_query": "President Utah United States 2024",
      "has_pm": 1,
      "has_k": 1,
      "kalshi_event": "PRESPARTYUT-24"
    },
    {
      "lat": 41.6,
      "lng": -72.76,
      "label": "2024 \u2014 Connecticut \u2014 President (+8 more)",
      "elections": 9,
      "markets": 23,
      "volume": 749551.72,
      "search_query": "President Connecticut United States 2024",
      "has_pm": 1,
      "has_k": 1,
      "kalshi_event": "PRESPARTYCT-24"
    },
    {
      "lat": 14.6,
      "lng": 120.98,
      "label": "2025 \u2014 Philippines \u2014 Parliament (+2 more)",
      "elections": 3,
      "markets": 20,
      "volume": 741810.94,
      "search_query": "Parliament Philippines 2025",
      "has_pm": 1,
      "has_k": 1,
      "kalshi_event": "KXPHILIPPINESHOUSE-28"
    },
    {
      "lat": 43.8,
      "lng": -120.55,
      "label": "2024 \u2014 Oregon \u2014 President (+13 more)",
      "elections": 14,
      "markets": 47,
      "volume": 728356.0,
      "search_query": "President Oregon United States 2024",
      "has_pm": 1,
      "has_k": 1,
      "kalshi_event": "PRESPARTYOR-24"
    },
    {
      "lat": 1.35,
      "lng": 103.82,
      "label": "2025 \u2014 Singapore \u2014 Parliament",
      "elections": 1,
      "markets": 12,
      "volume": 717384.62,
      "search_query": "Parliament Singapore 2025",
      "has_pm": 1,
      "has_k": 0
    },
    {
      "lat": 32.36,
      "lng": -86.3,
      "label": "2024 \u2014 Alabama \u2014 President (+14 more)",
      "elections": 15,
      "markets": 43,
      "volume": 716768.23,
      "search_query": "President Alabama United States 2024",
      "has_pm": 1,
      "has_k": 1,
      "kalshi_event": "PRESPARTYAL-24"
    },
    {
      "lat": -3.72,
      "lng": -38.54,
      "label": "2024 \u2014 Fortaleza \u2014 Mayor",
      "elections": 1,
      "markets": 3,
      "volume": 670165.7,
      "search_query": "Mayor Fortaleza Brazil 2024",
      "has_pm": 1,
      "has_k": 0
    },
    {
      "lat": 43.97,
      "lng": -99.9,
      "label": "2024 \u2014 South Dakota \u2014 President (+4 more)",
      "elections": 5,
      "markets": 14,
      "volume": 656713.98,
      "search_query": "President South Dakota United States 2024",
      "has_pm": 1,
      "has_k": 1,
      "kalshi_event": "PRESPARTYSD-24"
    },
    {
      "lat": 51.51,
      "lng": -0.13,
      "label": "2030 \u2014 United Kingdom \u2014 Prime Minister (+4 more)",
      "elections": 5,
      "markets": 37,
      "volume": 589586.0,
      "search_query": "Prime Minister United Kingdom 2030",
      "has_pm": 0,
      "has_k": 1,
      "kalshi_event": "KXNEXTUKPM-30"
    },
    {
      "lat": 6.8,
      "lng": -58.16,
      "label": "2025 \u2014 Guyana \u2014 President (+1 more)",
      "elections": 2,
      "markets": 32,
      "volume": 587824.44,
      "search_query": "President Guyana 2025",
      "has_pm": 1,
      "has_k": 1,
      "kalshi_event": "KXGUYANAPRES-25"
    },
    {
      "lat": 49.28,
      "lng": -123.12,
      "label": "2024 \u2014 British Columbia \u2014 Regional",
      "elections": 1,
      "markets": 4,
      "volume": 558112.79,
      "search_query": "Regional British Columbia Canada 2024",
      "has_pm": 1,
      "has_k": 0
    },
    {
      "lat": -13.97,
      "lng": 33.79,
      "label": "2025 \u2014 Malawi \u2014 President (+2 more)",
      "elections": 3,
      "markets": 25,
      "volume": 552726.27,
      "search_query": "President Malawi 2025",
      "has_pm": 1,
      "has_k": 1,
      "kalshi_event": "KXMALAWIPRES-25"
    },
    {
      "lat": 54.69,
      "lng": 25.28,
      "label": "2024 \u2014 Lithuania \u2014 President (+1 more)",
      "elections": 2,
      "markets": 12,
      "volume": 513161.61,
      "search_query": "President Lithuania 2024",
      "has_pm": 1,
      "has_k": 0
    },
    {
      "lat": 41.15,
      "lng": 20.17,
      "label": "2025 \u2014 Albania \u2014 Parliament",
      "elections": 1,
      "markets": 9,
      "volume": 499956.41,
      "search_query": "Parliament Albania 2025",
      "has_pm": 1,
      "has_k": 1,
      "kalshi_event": "KXALBANIAPARTY"
    },
    {
      "lat": 27.72,
      "lng": 85.32,
      "label": "2026 \u2014 Nepal \u2014 Parliament",
      "elections": 1,
      "markets": 11,
      "volume": 497880.47,
      "search_query": "Parliament Nepal 2026",
      "has_pm": 1,
      "has_k": 1,
      "kalshi_event": "KXNEPALHOUSE-26MAR05"
    },
    {
      "lat": -30.03,
      "lng": -51.23,
      "label": "2024 \u2014 Porto Alegre \u2014 Mayor",
      "elections": 1,
      "markets": 5,
      "volume": 457239.5,
      "search_query": "Mayor Porto Alegre Brazil 2024",
      "has_pm": 1,
      "has_k": 0
    },
    {
      "lat": 40.73,
      "lng": -74.04,
      "label": "2025 \u2014 Jersey City \u2014 Mayor",
      "elections": 1,
      "markets": 25,
      "volume": 432161.11,
      "search_query": "Mayor Jersey City United States 2025",
      "has_pm": 1,
      "has_k": 1,
      "kalshi_event": "KXMAYORJERSEY-25"
    },
    {
      "lat": 41.58,
      "lng": -71.48,
      "label": "2024 \u2014 Rhode Island \u2014 President (+5 more)",
      "elections": 6,
      "markets": 19,
      "volume": 417519.12,
      "search_query": "President Rhode Island United States 2024",
      "has_pm": 1,
      "has_k": 1,
      "kalshi_event": "PRESPARTYRI-24"
    },
    {
      "lat": 35.47,
      "lng": -97.52,
      "label": "2024 \u2014 Oklahoma \u2014 President (+10 more)",
      "elections": 11,
      "markets": 29,
      "volume": 402789.65,
      "search_query": "President Oklahoma United States 2024",
      "has_pm": 1,
      "has_k": 1,
      "kalshi_event": "PRESPARTYOK-24"
    },
    {
      "lat": 41.72,
      "lng": 44.79,
      "label": "2024 \u2014 Georgia \u2014 Parliament (+1 more)",
      "elections": 2,
      "markets": 3,
      "volume": 334634.12,
      "search_query": "Parliament Georgia 2024",
      "has_pm": 1,
      "has_k": 1,
      "kalshi_event": "KXGEORGIAPARLI-28"
    },
    {
      "lat": 52.41,
      "lng": 13.07,
      "label": "2024 \u2014 Brandenburg \u2014 Regional",
      "elections": 1,
      "markets": 5,
      "volume": 311461.06,
      "search_query": "Regional Brandenburg Germany 2024",
      "has_pm": 1,
      "has_k": 0
    },
    {
      "lat": 48.21,
      "lng": 16.37,
      "label": "2024 \u2014 Austria \u2014 Parliament",
      "elections": 1,
      "markets": 6,
      "volume": 299892.35,
      "search_query": "Parliament Austria 2024",
      "has_pm": 1,
      "has_k": 0
    },
    {
      "lat": 64.15,
      "lng": -21.94,
      "label": "2024 \u2014 Iceland \u2014 Parliament (+1 more)",
      "elections": 2,
      "markets": 11,
      "volume": 293393.48,
      "search_query": "Parliament Iceland 2024",
      "has_pm": 1,
      "has_k": 0
    },
    {
      "lat": 44.07,
      "lng": -114.74,
      "label": "2024 \u2014 Idaho \u2014 President (+7 more)",
      "elections": 8,
      "markets": 26,
      "volume": 285602.79,
      "search_query": "President Idaho United States 2024",
      "has_pm": 1,
      "has_k": 1,
      "kalshi_event": "PRESPARTYID-24"
    },
    {
      "lat": 37.8,
      "lng": -122.27,
      "label": "2024 \u2014 Oakland \u2014 Mayor (+1 more)",
      "elections": 2,
      "markets": 12,
      "volume": 270942.76,
      "search_query": "Mayor Oakland United States 2024",
      "has_pm": 1,
      "has_k": 1,
      "kalshi_event": "KXMAYOROAKLAND-25"
    },
    {
      "lat": 42.33,
      "lng": -83.05,
      "label": "2025 \u2014 Detroit \u2014 Mayor",
      "elections": 1,
      "markets": 35,
      "volume": 266693.18,
      "search_query": "Mayor Detroit United States 2025",
      "has_pm": 1,
      "has_k": 1,
      "kalshi_event": "KXMAYORDETROIT-25"
    },
    {
      "lat": -33.8,
      "lng": 151.1,
      "label": "2025 \u2014 Bennelong \u2014 Parliament",
      "elections": 1,
      "markets": 24,
      "volume": 266506.0,
      "search_query": "Parliament Bennelong Australia 2025",
      "has_pm": 1,
      "has_k": 1,
      "kalshi_event": "KXAUSSEATBENNELONG-25"
    },
    {
      "lat": 35.69,
      "lng": 51.39,
      "label": "2023 \u2014 Iran \u2014 President",
      "elections": 1,
      "markets": 14,
      "volume": 246854.95,
      "search_query": "President Iran 2023",
      "has_pm": 1,
      "has_k": 0
    },
    {
      "lat": 30.98,
      "lng": -91.96,
      "label": "2024 \u2014 Louisiana \u2014 President (+15 more)",
      "elections": 16,
      "markets": 53,
      "volume": 241132.49,
      "search_query": "President Louisiana United States 2024",
      "has_pm": 1,
      "has_k": 1,
      "kalshi_event": "PRESPARTYLA-24"
    },
    {
      "lat": 4.36,
      "lng": 18.56,
      "label": "2025 \u2014 Central African Republic \u2014 President",
      "elections": 1,
      "markets": 34,
      "volume": 240058.18,
      "search_query": "President Central African Republic 2025",
      "has_pm": 1,
      "has_k": 0
    },
    {
      "lat": 46.5,
      "lng": -66.16,
      "label": "2024 \u2014 New Brunswick \u2014 Regional",
      "elections": 1,
      "markets": 4,
      "volume": 230156.25,
      "search_query": "Regional New Brunswick Canada 2024",
      "has_pm": 1,
      "has_k": 0
    },
    {
      "lat": 41.65,
      "lng": -0.88,
      "label": "2026 \u2014 Aragon \u2014 Regional",
      "elections": 1,
      "markets": 17,
      "volume": 199731.03,
      "search_query": "Regional Aragon Spain 2026",
      "has_pm": 1,
      "has_k": 0
    },
    {
      "lat": 18.11,
      "lng": -76.79,
      "label": "2025 \u2014 Jamaica \u2014 Prime Minister (+2 more)",
      "elections": 3,
      "markets": 19,
      "volume": 199565.59,
      "search_query": "Prime Minister Jamaica 2025",
      "has_pm": 1,
      "has_k": 1,
      "kalshi_event": "KXJAMAICANHOR-26"
    },
    {
      "lat": 13.69,
      "lng": -89.22,
      "label": "2024 \u2014 El Salvador \u2014 President",
      "elections": 1,
      "markets": 5,
      "volume": 194856.23,
      "search_query": "President El Salvador 2024",
      "has_pm": 1,
      "has_k": 0
    },
    {
      "lat": 9.65,
      "lng": -13.58,
      "label": "2025 \u2014 Guinea \u2014 President",
      "elections": 1,
      "markets": 36,
      "volume": 174912.86,
      "search_query": "President Guinea 2025",
      "has_pm": 1,
      "has_k": 0
    },
    {
      "lat": 42.36,
      "lng": -71.06,
      "label": "2025 \u2014 Boston \u2014 Mayor",
      "elections": 1,
      "markets": 26,
      "volume": 172696.01,
      "search_query": "Mayor Boston United States 2025",
      "has_pm": 1,
      "has_k": 1,
      "kalshi_event": "KXMAYORBOSTON-25"
    },
    {
      "lat": 42.66,
      "lng": 21.17,
      "label": "2024 \u2014 Kosovo \u2014 Prime Minister",
      "elections": 1,
      "markets": 19,
      "volume": 171934.06,
      "search_query": "Prime Minister Kosovo 2024",
      "has_pm": 1,
      "has_k": 0
    },
    {
      "lat": -3.38,
      "lng": 29.36,
      "label": "2025 \u2014 Burundi \u2014 Parliament",
      "elections": 1,
      "markets": 4,
      "volume": 162985.53,
      "search_query": "Parliament Burundi 2025",
      "has_pm": 1,
      "has_k": 0
    },
    {
      "lat": -13.83,
      "lng": -171.76,
      "label": "2025 \u2014 Samoa \u2014 Parliament",
      "elections": 1,
      "markets": 14,
      "volume": 148399.0,
      "search_query": "Parliament Samoa 2025",
      "has_pm": 1,
      "has_k": 0
    },
    {
      "lat": -6.79,
      "lng": 39.28,
      "label": "2025 \u2014 Tanzania \u2014 President",
      "elections": 1,
      "markets": 15,
      "volume": 148075.78,
      "search_query": "President Tanzania 2025",
      "has_pm": 1,
      "has_k": 0
    },
    {
      "lat": -27.47,
      "lng": 153.03,
      "label": "2025 \u2014 Brisbane \u2014 Parliament",
      "elections": 1,
      "markets": 23,
      "volume": 140121.56,
      "search_query": "Parliament Brisbane Australia 2025",
      "has_pm": 1,
      "has_k": 1,
      "kalshi_event": "KXAUSSEATBRISBANE-25"
    },
    {
      "lat": 46.06,
      "lng": 14.51,
      "label": "2023 \u2014 Slovenia \u2014 Parliament",
      "elections": 1,
      "markets": 7,
      "volume": 131060.07,
      "search_query": "Parliament Slovenia 2023",
      "has_pm": 1,
      "has_k": 0
    },
    {
      "lat": 35.08,
      "lng": -106.65,
      "label": "2025 \u2014 Albuquerque \u2014 Mayor",
      "elections": 1,
      "markets": 27,
      "volume": 124063.1,
      "search_query": "Mayor Albuquerque United States 2025",
      "has_pm": 1,
      "has_k": 1,
      "kalshi_event": "KXMAYORALBUQ-25"
    },
    {
      "lat": 8.98,
      "lng": -79.52,
      "label": "2024 \u2014 Panama \u2014 President",
      "elections": 1,
      "markets": 8,
      "volume": 114658.92,
      "search_query": "President Panama 2024",
      "has_pm": 1,
      "has_k": 0
    },
    {
      "lat": -26.2,
      "lng": 28.04,
      "label": "2024 \u2014 South Africa \u2014 President",
      "elections": 1,
      "markets": 1,
      "volume": 97507.33,
      "search_query": "President South Africa 2024",
      "has_pm": 1,
      "has_k": 0
    },
    {
      "lat": 29.95,
      "lng": -90.07,
      "label": "2025 \u2014 New Orleans \u2014 Mayor",
      "elections": 1,
      "markets": 21,
      "volume": 93546.53,
      "search_query": "Mayor New Orleans United States 2025",
      "has_pm": 1,
      "has_k": 1,
      "kalshi_event": "KXMAYORNOLA-25"
    },
    {
      "lat": 25.76,
      "lng": -80.19,
      "label": "2025 \u2014 Miami \u2014 Mayor",
      "elections": 1,
      "markets": 19,
      "volume": 93291.08,
      "search_query": "Mayor Miami United States 2025",
      "has_pm": 1,
      "has_k": 1,
      "kalshi_event": "KXMAYORMIA-25"
    },
    {
      "lat": 6.93,
      "lng": 79.85,
      "label": "2024 \u2014 Sri Lanka \u2014 Parliament",
      "elections": 1,
      "markets": 4,
      "volume": 83554.28,
      "search_query": "Parliament Sri Lanka 2024",
      "has_pm": 1,
      "has_k": 0
    },
    {
      "lat": 47.14,
      "lng": 9.52,
      "label": "2024 \u2014 Liechtenstein \u2014 Parliament",
      "elections": 1,
      "markets": 1,
      "volume": 83249.6,
      "search_query": "Parliament Liechtenstein 2024",
      "has_pm": 1,
      "has_k": 0
    },
    {
      "lat": 14.72,
      "lng": -17.47,
      "label": "2024 \u2014 Senegal \u2014 President",
      "elections": 1,
      "markets": 8,
      "volume": 77419.6,
      "search_query": "President Senegal 2024",
      "has_pm": 1,
      "has_k": 0
    },
    {
      "lat": 52.13,
      "lng": -106.67,
      "label": "2024 \u2014 Saskatchewan \u2014 Parliament (+1 more)",
      "elections": 2,
      "markets": 3,
      "volume": 76927.07,
      "search_query": "Parliament Saskatchewan Canada 2024",
      "has_pm": 1,
      "has_k": 0
    },
    {
      "lat": 39.93,
      "lng": 32.85,
      "label": "2024 \u2014 Istanbul \u2014 Mayor (+2 more)",
      "elections": 3,
      "markets": 23,
      "volume": 71613.81,
      "search_query": "Mayor Istanbul Turkey 2024",
      "has_pm": 1,
      "has_k": 1,
      "kalshi_event": "KXTURKEYPRES-28"
    },
    {
      "lat": -25.43,
      "lng": -49.27,
      "label": "2024 \u2014 Curitiba \u2014 Mayor",
      "elections": 1,
      "markets": 3,
      "volume": 64499.25,
      "search_query": "Mayor Curitiba Brazil 2024",
      "has_pm": 1,
      "has_k": 0
    },
    {
      "lat": 0.39,
      "lng": 9.45,
      "label": "2025 \u2014 Gabon \u2014 President",
      "elections": 1,
      "markets": 9,
      "volume": 63226.05,
      "search_query": "President Gabon 2025",
      "has_pm": 1,
      "has_k": 0
    },
    {
      "lat": 40.42,
      "lng": -3.7,
      "label": "2025 \u2014 Extremadura \u2014 Regional (+1 more)",
      "elections": 2,
      "markets": 19,
      "volume": 53040.55,
      "search_query": "Regional Extremadura Spain 2025",
      "has_pm": 1,
      "has_k": 1,
      "kalshi_event": "KXSPAINPARLI-27"
    },
    {
      "lat": 36.57,
      "lng": 128.51,
      "label": "2025 \u2014 Gyeongbuk State \u2014 President",
      "elections": 1,
      "markets": 1,
      "volume": 40735.34,
      "search_query": "President Gyeongbuk State South Korea 2025",
      "has_pm": 1,
      "has_k": 0
    },
    {
      "lat": 35.18,
      "lng": 129.08,
      "label": "2025 \u2014 Busan \u2014 President",
      "elections": 1,
      "markets": 1,
      "volume": 38990.15,
      "search_query": "President Busan South Korea 2025",
      "has_pm": 1,
      "has_k": 0
    },
    {
      "lat": 31.77,
      "lng": 35.22,
      "label": "2045 \u2014 Israel \u2014 Prime Minister (+1 more)",
      "elections": 2,
      "markets": 17,
      "volume": 38769.0,
      "search_query": "Prime Minister Israel 2045",
      "has_pm": 0,
      "has_k": 1,
      "kalshi_event": "KXNEXTISRAELPM-45JAN01"
    },
    {
      "lat": 35.23,
      "lng": -80.84,
      "label": "2025 \u2014 Charlotte \u2014 Mayor",
      "elections": 1,
      "markets": 19,
      "volume": 38413.45,
      "search_query": "Mayor Charlotte United States 2025",
      "has_pm": 1,
      "has_k": 1,
      "kalshi_event": "KXMAYORCHAR-25"
    },
    {
      "lat": 18.47,
      "lng": -69.9,
      "label": "2024 \u2014 Dominican Republic \u2014 President (+1 more)",
      "elections": 2,
      "markets": 10,
      "volume": 36688.1,
      "search_query": "President Dominican Republic 2024",
      "has_pm": 1,
      "has_k": 1,
      "kalshi_event": "KXDOMINICANREPUBLICSENATE-28"
    },
    {
      "lat": 48.86,
      "lng": 2.35,
      "label": "2026 \u2014 Paris \u2014 Mayor",
      "elections": 1,
      "markets": 11,
      "volume": 35561.0,
      "search_query": "Mayor Paris France 2026",
      "has_pm": 0,
      "has_k": 1,
      "kalshi_event": "KXPARISMAYOR-26MAR15"
    },
    {
      "lat": 59.91,
      "lng": 10.75,
      "label": "2025 \u2014 Norway \u2014 Parliament (+1 more)",
      "elections": 2,
      "markets": 22,
      "volume": 33115.36,
      "search_query": "Parliament Norway 2025",
      "has_pm": 1,
      "has_k": 1,
      "kalshi_event": "KXNORWAYFOURTH-25SEP08-4"
    },
    {
      "lat": 37.88,
      "lng": 127.73,
      "label": "2025 \u2014 Gangwon State \u2014 President",
      "elections": 1,
      "markets": 1,
      "volume": 30302.9,
      "search_query": "President Gangwon State South Korea 2025",
      "has_pm": 1,
      "has_k": 0
    },
    {
      "lat": 33.75,
      "lng": -84.39,
      "label": "2025 \u2014 Atlanta \u2014 Mayor",
      "elections": 1,
      "markets": 23,
      "volume": 23781.74,
      "search_query": "Mayor Atlanta United States 2025",
      "has_pm": 1,
      "has_k": 1,
      "kalshi_event": "KXMAYORATLANTA-25"
    },
    {
      "lat": 35.54,
      "lng": 129.31,
      "label": "2025 \u2014 Ulsan \u2014 President",
      "elections": 1,
      "markets": 1,
      "volume": 23083.4,
      "search_query": "President Ulsan South Korea 2025",
      "has_pm": 1,
      "has_k": 0
    },
    {
      "lat": 40.44,
      "lng": -80.0,
      "label": "2025 \u2014 Pittsburgh \u2014 Mayor",
      "elections": 1,
      "markets": 18,
      "volume": 22180.16,
      "search_query": "Mayor Pittsburgh United States 2025",
      "has_pm": 1,
      "has_k": 1,
      "kalshi_event": "KXMAYORPITT-25"
    },
    {
      "lat": 36.64,
      "lng": 127.49,
      "label": "2025 \u2014 Chungbuk State \u2014 President",
      "elections": 1,
      "markets": 1,
      "volume": 21244.9,
      "search_query": "President Chungbuk State South Korea 2025",
      "has_pm": 1,
      "has_k": 0
    },
    {
      "lat": -19.92,
      "lng": -43.94,
      "label": "2024 \u2014 Belo Horizonte \u2014 Mayor",
      "elections": 1,
      "markets": 3,
      "volume": 17422.91,
      "search_query": "Mayor Belo Horizonte Brazil 2024",
      "has_pm": 1,
      "has_k": 0
    },
    {
      "lat": 46.81,
      "lng": -71.21,
      "label": "2026 \u2014 Quebec \u2014 Other",
      "elections": 1,
      "markets": 6,
      "volume": 17350.0,
      "search_query": "Other Quebec Canada 2026",
      "has_pm": 0,
      "has_k": 1,
      "kalshi_event": "KXCAQLEADER-26DEC31"
    },
    {
      "lat": 43.3,
      "lng": 5.37,
      "label": "2026 \u2014 Marseille \u2014 Mayor",
      "elections": 1,
      "markets": 4,
      "volume": 16861.0,
      "search_query": "Mayor Marseille France 2026",
      "has_pm": 0,
      "has_k": 1,
      "kalshi_event": "KXMARSEILLEMAYOR-26MAR15"
    },
    {
      "lat": 41.5,
      "lng": -81.69,
      "label": "2025 \u2014 Cleveland \u2014 Mayor",
      "elections": 1,
      "markets": 17,
      "volume": 15733.78,
      "search_query": "Mayor Cleveland United States 2025",
      "has_pm": 1,
      "has_k": 1,
      "kalshi_event": "KXMAYORCLEV-25"
    },
    {
      "lat": 47.5,
      "lng": 19.04,
      "label": "2024 \u2014 Hungary \u2014 Prime Minister",
      "elections": 1,
      "markets": 1,
      "volume": 13805.25,
      "search_query": "Prime Minister Hungary 2024",
      "has_pm": 1,
      "has_k": 0
    },
    {
      "lat": 47.89,
      "lng": 106.91,
      "label": "2027 \u2014 Mongolia \u2014 President",
      "elections": 1,
      "markets": 5,
      "volume": 13364.0,
      "search_query": "President Mongolia 2027",
      "has_pm": 0,
      "has_k": 1,
      "kalshi_event": "KXMONGOLIAPRES-27"
    },
    {
      "lat": 35.18,
      "lng": 128.69,
      "label": "2025 \u2014 Gyeongnam State \u2014 President",
      "elections": 1,
      "markets": 1,
      "volume": 10443.53,
      "search_query": "President Gyeongnam State South Korea 2025",
      "has_pm": 1,
      "has_k": 0
    },
    {
      "lat": -1.29,
      "lng": 36.82,
      "label": "2027 \u2014 Kenya \u2014 Parliament (+1 more)",
      "elections": 2,
      "markets": 8,
      "volume": 10358.0,
      "search_query": "Parliament Kenya 2027",
      "has_pm": 0,
      "has_k": 1,
      "kalshi_event": "KXKENYASENATE-27"
    },
    {
      "lat": 49.99,
      "lng": 8.25,
      "label": "2026 \u2014 Rhineland-Palatinate \u2014 Regional",
      "elections": 1,
      "markets": 3,
      "volume": 10351.0,
      "search_query": "Regional Rhineland-Palatinate Germany 2026",
      "has_pm": 0,
      "has_k": 1,
      "kalshi_event": "KXRHIPAL-26MAR22"
    },
    {
      "lat": 42.7,
      "lng": 23.32,
      "label": "2026 \u2014 Bulgaria \u2014 President",
      "elections": 1,
      "markets": 10,
      "volume": 10179.0,
      "search_query": "President Bulgaria 2026",
      "has_pm": 0,
      "has_k": 1,
      "kalshi_event": "KXBULGARIAPRES-26NOV15"
    },
    {
      "lat": 36.35,
      "lng": 127.38,
      "label": "2025 \u2014 Daejeon \u2014 President",
      "elections": 1,
      "markets": 1,
      "volume": 9626.27,
      "search_query": "President Daejeon South Korea 2025",
      "has_pm": 1,
      "has_k": 0
    },
    {
      "lat": 50.45,
      "lng": 30.52,
      "label": "2026 \u2014 Ukraine \u2014 Other",
      "elections": 1,
      "markets": 8,
      "volume": 6975.89,
      "search_query": "Other Ukraine 2026",
      "has_pm": 1,
      "has_k": 0
    },
    {
      "lat": 37.27,
      "lng": 127.01,
      "label": "2025 \u2014 Gyeonggi Province \u2014 President",
      "elections": 1,
      "markets": 1,
      "volume": 6556.86,
      "search_query": "President Gyeonggi Province South Korea 2025",
      "has_pm": 1,
      "has_k": 0
    },
    {
      "lat": 35.87,
      "lng": 128.6,
      "label": "2025 \u2014 Daegu \u2014 President",
      "elections": 1,
      "markets": 1,
      "volume": 6526.87,
      "search_query": "President Daegu South Korea 2025",
      "has_pm": 1,
      "has_k": 0
    },
    {
      "lat": 5.56,
      "lng": -0.19,
      "label": "2028 \u2014 Ghana \u2014 Parliament (+3 more)",
      "elections": 4,
      "markets": 16,
      "volume": 5934.0,
      "search_query": "Parliament Ghana 2028",
      "has_pm": 0,
      "has_k": 1,
      "kalshi_event": "KXGHANAPARLI-28"
    },
    {
      "lat": 36.66,
      "lng": 126.67,
      "label": "2025 \u2014 Chungnam State \u2014 President",
      "elections": 1,
      "markets": 1,
      "volume": 4780.87,
      "search_query": "President Chungnam State South Korea 2025",
      "has_pm": 1,
      "has_k": 0
    },
    {
      "lat": 37.46,
      "lng": 126.71,
      "label": "2025 \u2014 Incheon \u2014 President",
      "elections": 1,
      "markets": 1,
      "volume": 4184.11,
      "search_query": "President Incheon South Korea 2025",
      "has_pm": 1,
      "has_k": 0
    },
    {
      "lat": 35.16,
      "lng": 126.85,
      "label": "2025 \u2014 Gwangju \u2014 President",
      "elections": 1,
      "markets": 1,
      "volume": 4114.35,
      "search_query": "President Gwangju South Korea 2025",
      "has_pm": 1,
      "has_k": 0
    },
    {
      "lat": 34.82,
      "lng": 126.89,
      "label": "2025 \u2014 Jeonnam State \u2014 President",
      "elections": 1,
      "markets": 1,
      "volume": 3213.65,
      "search_query": "President Jeonnam State South Korea 2025",
      "has_pm": 1,
      "has_k": 0
    },
    {
      "lat": -41.29,
      "lng": 174.78,
      "label": "2026 \u2014 New Zealand \u2014 Parliament",
      "elections": 1,
      "markets": 6,
      "volume": 2967.0,
      "search_query": "Parliament New Zealand 2026",
      "has_pm": 0,
      "has_k": 1,
      "kalshi_event": "KXNEWZEALANDPARLI-26DEC31"
    },
    {
      "lat": 6.45,
      "lng": 3.39,
      "label": "2027 \u2014 Nigeria \u2014 President (+1 more)",
      "elections": 2,
      "markets": 7,
      "volume": 2919.0,
      "search_query": "President Nigeria 2027",
      "has_pm": 0,
      "has_k": 1,
      "kalshi_event": "KXPRESNIGERIA-27"
    },
    {
      "lat": 36.48,
      "lng": 127.26,
      "label": "2025 \u2014 Sejong \u2014 President",
      "elections": 1,
      "markets": 1,
      "volume": 2322.0,
      "search_query": "President Sejong South Korea 2025",
      "has_pm": 1,
      "has_k": 0
    },
    {
      "lat": 52.23,
      "lng": 21.01,
      "label": "2027 \u2014 Poland \u2014 Parliament (+1 more)",
      "elections": 2,
      "markets": 20,
      "volume": 2263.0,
      "search_query": "Parliament Poland 2027",
      "has_pm": 0,
      "has_k": 1,
      "kalshi_event": "KXPOLANDSEJM-27"
    },
    {
      "lat": 33.5,
      "lng": 126.53,
      "label": "2025 \u2014 Jeju Province \u2014 President",
      "elections": 1,
      "markets": 1,
      "volume": 1682.54,
      "search_query": "President Jeju Province South Korea 2025",
      "has_pm": 1,
      "has_k": 0
    },
    {
      "lat": 35.82,
      "lng": 127.11,
      "label": "2025 \u2014 Jeonbuk State \u2014 President",
      "elections": 1,
      "markets": 1,
      "volume": 1629.16,
      "search_query": "President Jeonbuk State South Korea 2025",
      "has_pm": 1,
      "has_k": 0
    },
    {
      "lat": 37.98,
      "lng": 23.73,
      "label": "2027 \u2014 Greece \u2014 Parliament (+1 more)",
      "elections": 2,
      "markets": 6,
      "volume": 1621.0,
      "search_query": "Parliament Greece 2027",
      "has_pm": 0,
      "has_k": 1,
      "kalshi_event": "KXGREECEPARLI-27"
    },
    {
      "lat": 3.14,
      "lng": 101.69,
      "label": "2027 \u2014 Malaysia \u2014 Parliament",
      "elections": 1,
      "markets": 5,
      "volume": 1582.0,
      "search_query": "Parliament Malaysia 2027",
      "has_pm": 0,
      "has_k": 1,
      "kalshi_event": "KXMALAYSIAPARLI-2-27"
    },
    {
      "lat": 41.9,
      "lng": 12.5,
      "label": "2027 \u2014 Italy \u2014 Parliament (+5 more)",
      "elections": 6,
      "markets": 23,
      "volume": 1292.0,
      "search_query": "Parliament Italy 2027",
      "has_pm": 1,
      "has_k": 1,
      "kalshi_event": "KXITALYDEPUTIES-27"
    },
    {
      "lat": 60.17,
      "lng": 24.94,
      "label": "2027 \u2014 Finland \u2014 Parliament",
      "elections": 1,
      "markets": 5,
      "volume": 632.0,
      "search_query": "Parliament Finland 2027",
      "has_pm": 0,
      "has_k": 1,
      "kalshi_event": "KXFINLANDPARLI-27"
    },
    {
      "lat": -25.26,
      "lng": -57.58,
      "label": "2028 \u2014 Paraguay \u2014 Parliament",
      "elections": 1,
      "markets": 12,
      "volume": 477.0,
      "search_query": "Parliament Paraguay 2028",
      "has_pm": 0,
      "has_k": 1,
      "kalshi_event": "KXPARAGUAYSENATE-28"
    },
    {
      "lat": 13.45,
      "lng": -16.58,
      "label": "2026 \u2014 Gambia \u2014 President",
      "elections": 1,
      "markets": 4,
      "volume": 166.0,
      "search_query": "President Gambia 2026",
      "has_pm": 0,
      "has_k": 1,
      "kalshi_event": "KXTHEGAMBIAPRES-26"
    },
    {
      "lat": -15.39,
      "lng": 28.32,
      "label": "2026 \u2014 Zambia \u2014 Parliament (+1 more)",
      "elections": 2,
      "markets": 6,
      "volume": 142.0,
      "search_query": "Parliament Zambia 2026",
      "has_pm": 0,
      "has_k": 1,
      "kalshi_event": "KXZAMBIAASSEMBLY-26"
    },
    {
      "lat": 19.43,
      "lng": -99.13,
      "label": "2027 \u2014 Mexico \u2014 Parliament",
      "elections": 1,
      "markets": 6,
      "volume": 134.0,
      "search_query": "Parliament Mexico 2027",
      "has_pm": 0,
      "has_k": 1,
      "kalshi_event": "KXMEXICODEPUTIES-27"
    },
    {
      "lat": 48.15,
      "lng": 17.11,
      "label": "2027 \u2014 Slovakia \u2014 Parliament",
      "elections": 1,
      "markets": 3,
      "volume": 107.0,
      "search_query": "Parliament Slovakia 2027",
      "has_pm": 0,
      "has_k": 1,
      "kalshi_event": "KXSLOVAKIAPARLI-27"
    },
    {
      "lat": 14.63,
      "lng": -90.51,
      "label": "2027 \u2014 Guatemala \u2014 Parliament",
      "elections": 1,
      "markets": 7,
      "volume": 48.0,
      "search_query": "Parliament Guatemala 2027",
      "has_pm": 0,
      "has_k": 1,
      "kalshi_event": "KXGUATEMALACONGRESS-27"
    },
    {
      "lat": 25.6,
      "lng": 85.14,
      "label": "2025 \u2014 Bihar \u2014 Regional",
      "elections": 1,
      "markets": 3,
      "volume": 0.0,
      "search_query": "Regional Bihar India 2025",
      "has_pm": 0,
      "has_k": 1,
      "kalshi_event": "KXBIHARELECTION-25NOV01"
    },
    {
      "lat": 51.05,
      "lng": -114.07,
      "label": "2025 \u2014 Calgary Centre \u2014 Parliament",
      "elections": 1,
      "markets": 6,
      "volume": 0.0,
      "search_query": "Parliament Calgary Centre Canada 2025",
      "has_pm": 0,
      "has_k": 1,
      "kalshi_event": "KXCALGARYCENTRE-25"
    },
    {
      "lat": 52.52,
      "lng": 13.41,
      "label": "2021 \u2014 Germany \u2014 Chancellor (+1 more)",
      "elections": 2,
      "markets": 17,
      "volume": 0.0,
      "search_query": "Chancellor Germany 2021",
      "has_pm": 0,
      "has_k": 1,
      "kalshi_event": "KXCHANCELLOR-21"
    },
    {
      "lat": 48.43,
      "lng": -71.07,
      "label": "2025 \u2014 Chicoutimi\u2014Le Fjord \u2014 Parliament",
      "elections": 1,
      "markets": 6,
      "volume": 0.0,
      "search_query": "Parliament Chicoutimi\u2014Le Fjord Canada 2025",
      "has_pm": 0,
      "has_k": 1,
      "kalshi_event": "KXCHICOUTIMI-25"
    },
    {
      "lat": 50.08,
      "lng": 14.44,
      "label": "2025 \u2014 Czech Republic \u2014 Parliament",
      "elections": 1,
      "markets": 8,
      "volume": 0.0,
      "search_query": "Parliament Czech Republic 2025",
      "has_pm": 0,
      "has_k": 1,
      "kalshi_event": "KXCZECHPARTY-25"
    },
    {
      "lat": 6.85,
      "lng": -5.3,
      "label": "2026 \u2014 Ivory Coast \u2014 President",
      "elections": 1,
      "markets": 5,
      "volume": 0.0,
      "search_query": "President Ivory Coast 2026",
      "has_pm": 0,
      "has_k": 1,
      "kalshi_event": "KXELECTIONICOAST-26"
    },
    {
      "lat": 42.98,
      "lng": -81.25,
      "label": "2025 \u2014 London-Fanshawe \u2014 Parliament",
      "elections": 1,
      "markets": 6,
      "volume": 0.0,
      "search_query": "Parliament London-Fanshawe Canada 2025",
      "has_pm": 0,
      "has_k": 1,
      "kalshi_event": "KXFANSHAWE-25"
    },
    {
      "lat": 45.27,
      "lng": -66.06,
      "label": "2025 \u2014 Fundy Royal \u2014 Parliament (+1 more)",
      "elections": 2,
      "markets": 12,
      "volume": 0.0,
      "search_query": "Parliament Fundy Royal Canada 2025",
      "has_pm": 0,
      "has_k": 1,
      "kalshi_event": "KXFUNDY-25"
    },
    {
      "lat": 53.47,
      "lng": -2.16,
      "label": "2026 \u2014 Gorton and Denton \u2014 Parliament",
      "elections": 1,
      "markets": 13,
      "volume": 0.0,
      "search_query": "Parliament Gorton and Denton United Kingdom 2026",
      "has_pm": 0,
      "has_k": 1,
      "kalshi_event": "KXGORDONDENTONBY-26MAR01"
    },
    {
      "lat": 64.17,
      "lng": -51.74,
      "label": "2025 \u2014 Greenland \u2014 Parliament",
      "elections": 1,
      "markets": 5,
      "volume": 0.0,
      "search_query": "Parliament Greenland 2025",
      "has_pm": 0,
      "has_k": 1,
      "kalshi_event": "KXGREENLANDPARTY-25"
    },
    {
      "lat": 43.26,
      "lng": -79.87,
      "label": "2025 \u2014 Hamilton Centre \u2014 Regional",
      "elections": 1,
      "markets": 6,
      "volume": 0.0,
      "search_query": "Regional Hamilton Centre Canada 2025",
      "has_pm": 0,
      "has_k": 1,
      "kalshi_event": "KXHAMILTONCENTRE-25"
    },
    {
      "lat": 49.9,
      "lng": -97.14,
      "label": "2025 \u2014 Kildonan\u2014St. Paul \u2014 Parliament (+1 more)",
      "elections": 2,
      "markets": 12,
      "volume": 0.0,
      "search_query": "Parliament Kildonan\u2014St. Paul Canada 2025",
      "has_pm": 0,
      "has_k": 1,
      "kalshi_event": "KXKILDONAN-25"
    },
    {
      "lat": 43.45,
      "lng": -80.49,
      "label": "2025 \u2014 Kitchener South\u2014Hespeler \u2014 Parliament",
      "elections": 1,
      "markets": 6,
      "volume": 0.0,
      "search_query": "Parliament Kitchener South\u2014Hespeler Canada 2025",
      "has_pm": 0,
      "has_k": 1,
      "kalshi_event": "KXKITCHENER-25"
    },
    {
      "lat": 45.42,
      "lng": -73.5,
      "label": "2025 \u2014 La Prairie\u2014Atateken \u2014 Parliament",
      "elections": 1,
      "markets": 6,
      "volume": 0.0,
      "search_query": "Parliament La Prairie\u2014Atateken Canada 2025",
      "has_pm": 0,
      "has_k": 1,
      "kalshi_event": "KXLAPRAIRIE-25"
    },
    {
      "lat": 39.1,
      "lng": -84.51,
      "label": "2025 \u2014 Cincinnati \u2014 Mayor",
      "elections": 1,
      "markets": 2,
      "volume": 0.0,
      "search_query": "Mayor Cincinnati United States 2025",
      "has_pm": 0,
      "has_k": 1,
      "kalshi_event": "KXMAYORCIN-25"
    },
    {
      "lat": 32.76,
      "lng": -97.33,
      "label": "2025 \u2014 Fort Worth \u2014 Mayor",
      "elections": 1,
      "markets": 8,
      "volume": 0.0,
      "search_query": "Mayor Fort Worth United States 2025",
      "has_pm": 0,
      "has_k": 1,
      "kalshi_event": "KXMAYORFORTW-25"
    },
    {
      "lat": 41.26,
      "lng": -95.94,
      "label": "2025 \u2014 Omaha \u2014 Mayor",
      "elections": 1,
      "markets": 4,
      "volume": 0.0,
      "search_query": "Mayor Omaha United States 2025",
      "has_pm": 0,
      "has_k": 1,
      "kalshi_event": "KXMAYOROMAHA-25"
    },
    {
      "lat": -21.21,
      "lng": -175.15,
      "label": "2026 \u2014 Tonga \u2014 Prime Minister",
      "elections": 1,
      "markets": 2,
      "volume": 0.0,
      "search_query": "Prime Minister Tonga 2026",
      "has_pm": 0,
      "has_k": 1,
      "kalshi_event": "KXNEXTTONGAPM-26"
    },
    {
      "lat": 43.06,
      "lng": -79.29,
      "label": "2025 \u2014 Niagara South \u2014 Parliament",
      "elections": 1,
      "markets": 6,
      "volume": 0.0,
      "search_query": "Parliament Niagara South Canada 2025",
      "has_pm": 0,
      "has_k": 1,
      "kalshi_event": "KXNIAGARASOUTH-25"
    },
    {
      "lat": 63.75,
      "lng": -68.52,
      "label": "2025 \u2014 Nunavut \u2014 Regional (+1 more)",
      "elections": 2,
      "markets": 6,
      "volume": 0.0,
      "search_query": "Regional Nunavut Canada 2025",
      "has_pm": 0,
      "has_k": 1,
      "kalshi_event": "KXNUNAVUT-25"
    },
    {
      "lat": 45.81,
      "lng": 15.98,
      "label": "2024 \u2014 Croatia \u2014 President",
      "elections": 1,
      "markets": 6,
      "volume": 0.0,
      "search_query": "President Croatia 2024",
      "has_pm": 0,
      "has_k": 1,
      "kalshi_event": "KXPRESCROATIA"
    },
    {
      "lat": 3.87,
      "lng": 11.52,
      "label": "2025 \u2014 Cameroon \u2014 President",
      "elections": 1,
      "markets": 8,
      "volume": 0.0,
      "search_query": "President Cameroon 2025",
      "has_pm": 0,
      "has_k": 1,
      "kalshi_event": "KXPRESCAMEROON-25OCT12"
    },
    {
      "lat": 50.45,
      "lng": -104.62,
      "label": "2025 \u2014 Regina-Wascana \u2014 Parliament",
      "elections": 1,
      "markets": 6,
      "volume": 0.0,
      "search_query": "Parliament Regina-Wascana Canada 2025",
      "has_pm": 0,
      "has_k": 1,
      "kalshi_event": "KXREGINAWASCANA-25"
    },
    {
      "lat": 46.35,
      "lng": -72.55,
      "label": "2025 \u2014 Trois-Rivi\u00e8res \u2014 Parliament",
      "elections": 1,
      "markets": 6,
      "volume": 0.0,
      "search_query": "Parliament Trois-Rivi\u00e8res Canada 2025",
      "has_pm": 0,
      "has_k": 1,
      "kalshi_event": "KXTROIS-25"
    },
    {
      "lat": 42.32,
      "lng": -83.04,
      "label": "2025 \u2014 Windsor West \u2014 Parliament",
      "elections": 1,
      "markets": 6,
      "volume": 0.0,
      "search_query": "Parliament Windsor West Canada 2025",
      "has_pm": 0,
      "has_k": 1,
      "kalshi_event": "KXWINDSORWEST-25"
    },
    {
      "lat": 60.72,
      "lng": -135.05,
      "label": "2025 \u2014 Yukon \u2014 Regional",
      "elections": 1,
      "markets": 3,
      "volume": 0.0,
      "search_query": "Regional Yukon Canada 2025",
      "has_pm": 0,
      "has_k": 1,
      "kalshi_event": "KXYUKON-25NOV03"
    },
    {
      "lat": 34.05,
      "lng": -118.24,
      "label": "2026 \u2014 Los Angeles \u2014 Mayor",
      "elections": 1,
      "markets": 10,
      "volume": 0.0,
      "search_query": "Mayor Los Angeles United States 2026",
      "has_pm": 0,
      "has_k": 1,
      "kalshi_event": "KXLAMAYORMATCHUP-26JUN"
    }
  ]
}